fips,county,state,lat,long,date,cases,state_code,deaths
1001.0,Autauga,Alabama,32.53952745,-86.64408227,2021-02-14,6023,AL,84
1003.0,Baldwin,Alabama,30.72774991,-87.72207058,2021-02-14,19105,AL,252
1005.0,Barbour,Alabama,31.868263,-85.3871286,2021-02-14,2042,AL,48
1007.0,Bibb,Alabama,32.99642064,-87.12511459999996,2021-02-14,2395,AL,57
1009.0,Blount,Alabama,33.98210918,-86.56790593,2021-02-14,5961,AL,121
1011.0,Bullock,Alabama,32.10030533,-85.71265535,2021-02-14,1142,AL,32
1013.0,Butler,Alabama,31.75300095,-86.68057478,2021-02-14,1902,AL,64
1015.0,Calhoun,Alabama,33.77483727,-85.82630386,2021-02-14,12700,AL,263
1017.0,Chambers,Alabama,32.91360079,-85.39072749,2021-02-14,3321,AL,94
1019.0,Cherokee,Alabama,34.17805983,-85.60638968,2021-02-14,1744,AL,37
1021.0,Chilton,Alabama,32.85044126,-86.7173256,2021-02-14,3731,AL,90
1023.0,Choctaw,Alabama,32.02227341,-88.26564429999998,2021-02-14,543,AL,23
1025.0,Clarke,Alabama,31.68099859,-87.83548597,2021-02-14,3391,AL,46
1027.0,Clay,Alabama,33.26984193,-85.85836077,2021-02-14,1393,AL,53
1029.0,Cleburne,Alabama,33.67679204,-85.52005899,2021-02-14,1335,AL,35
1031.0,Coffee,Alabama,31.39932826,-85.98901039,2021-02-14,5149,AL,91
1033.0,Colbert,Alabama,34.69847452,-87.80168544,2021-02-14,5930,AL,115
1035.0,Conecuh,Alabama,31.43401703,-86.99320044,2021-02-14,1050,AL,23
1037.0,Coosa,Alabama,32.93690146,-86.24847739,2021-02-14,839,AL,22
1039.0,Covington,Alabama,31.2477854,-86.45050893,2021-02-14,3828,AL,97
1041.0,Crenshaw,Alabama,31.72941803,-86.31593104,2021-02-14,1396,AL,51
1043.0,Cullman,Alabama,34.13020303,-86.86888037,2021-02-14,8797,AL,171
1045.0,Dale,Alabama,31.43037123,-85.61095742,2021-02-14,4521,AL,105
1047.0,Dallas,Alabama,32.32688101,-87.10866709999998,2021-02-14,3282,AL,130
1049.0,DeKalb,Alabama,34.45946862,-85.80782906,2021-02-14,8352,AL,167
1051.0,Elmore,Alabama,32.59785413,-86.14415284,2021-02-14,9100,AL,168
1053.0,Escambia,Alabama,31.1256789,-87.15918694,2021-02-14,3706,AL,58
1055.0,Etowah,Alabama,34.04567266,-86.04051873,2021-02-14,12954,AL,298
1057.0,Fayette,Alabama,33.72076938,-87.73886638,2021-02-14,1942,AL,51
1059.0,Franklin,Alabama,34.44235334,-87.84289505,2021-02-14,3947,AL,75
1061.0,Geneva,Alabama,31.09389027,-85.83572839,2021-02-14,2350,AL,65
1063.0,Greene,Alabama,32.85504247,-87.95684022,2021-02-14,851,AL,32
1065.0,Hale,Alabama,32.76039258,-87.63284988,2021-02-14,2024,AL,59
1067.0,Henry,Alabama,31.51148016,-85.24267944,2021-02-14,1783,AL,40
1069.0,Houston,Alabama,31.15197924,-85.29939599,2021-02-14,9892,AL,247
1071.0,Jackson,Alabama,34.78144169,-85.99750489,2021-02-14,6413,AL,92
1073.0,Jefferson,Alabama,33.55554728,-86.89506300000002,2021-02-14,69514,AL,1298
1075.0,Lamar,Alabama,33.77995024,-88.09668032,2021-02-14,1281,AL,32
1077.0,Lauderdale,Alabama,34.90171875,-87.65624729,2021-02-14,8471,AL,201
1079.0,Lawrence,Alabama,34.52041498,-87.31069453,2021-02-14,2777,AL,84
1081.0,Lee,Alabama,32.60154883,-85.35132246,2021-02-14,14608,AL,137
1083.0,Limestone,Alabama,34.81185586,-86.98310072,2021-02-14,9173,AL,125
1085.0,Lowndes,Alabama,32.1597283,-86.65158371,2021-02-14,1287,AL,44
1087.0,Macon,Alabama,32.38759944,-85.69267724,2021-02-14,1370,AL,40
1089.0,Madison,Alabama,34.76327133,-86.55069633,2021-02-14,31538,AL,402
1091.0,Marengo,Alabama,32.24767634,-87.78796182,2021-02-14,2259,AL,49
1093.0,Marion,Alabama,34.13697363,-87.88704173,2021-02-14,2706,AL,91
1095.0,Marshall,Alabama,34.36975964,-86.30486727,2021-02-14,11102,AL,194
1097.0,Mobile,Alabama,30.78472347,-88.20842409,2021-02-14,34840,AL,682
1099.0,Monroe,Alabama,31.56729412,-87.36995001,2021-02-14,1644,AL,33
1101.0,Montgomery,Alabama,32.2206831,-86.20969272,2021-02-14,21973,AL,464
1103.0,Morgan,Alabama,34.45500589,-86.85475946,2021-02-14,13395,AL,234
80001.0,Out of AL,Alabama,0.0,0.0,2021-02-14,0,AL,0
1105.0,Perry,Alabama,32.64048341,-87.29770589,2021-02-14,1042,AL,26
1107.0,Pickens,Alabama,33.28094866,-88.08818103,2021-02-14,2186,AL,50
1109.0,Pike,Alabama,31.80396383,-85.9408295,2021-02-14,2884,AL,68
1111.0,Randolph,Alabama,33.29526734,-85.45708831,2021-02-14,1577,AL,38
1113.0,Russell,Alabama,32.28725256,-85.18415324,2021-02-14,3946,AL,30
1117.0,Shelby,Alabama,33.26879845,-86.66232561,2021-02-14,21277,AL,194
1115.0,St. Clair,Alabama,33.71902176,-86.31029372,2021-02-14,8598,AL,210
1119.0,Sumter,Alabama,32.59117397,-88.19916205,2021-02-14,969,AL,30
1121.0,Talladega,Alabama,33.37823223,-86.16886178,2021-02-14,7276,AL,150
1123.0,Tallapoosa,Alabama,32.86698258,-85.79833053,2021-02-14,3426,AL,134
1125.0,Tuscaloosa,Alabama,33.28726072,-87.52556818,2021-02-14,23476,AL,391
90001.0,Unassigned,Alabama,0.0,0.0,2021-02-14,0,AL,0
1127.0,Walker,Alabama,33.80270512,-87.30027177,2021-02-14,6360,AL,238
1129.0,Washington,Alabama,31.4092794,-88.20689944,2021-02-14,1528,AL,31
1131.0,Wilcox,Alabama,31.98773215,-87.30891118,2021-02-14,1190,AL,24
1133.0,Winston,Alabama,34.15030532,-87.37325922,2021-02-14,2424,AL,62
2013.0,Aleutians East,Alaska,55.32222414,-161.9722021,2021-02-14,350,AK,0
2016.0,Aleutians West,Alaska,52.3233,-174.1596,2021-02-14,397,AK,0
2020.0,Anchorage,Alaska,61.14998174,-149.14269860000005,2021-02-14,26063,AK,153
2050.0,Bethel,Alaska,60.90980451,-159.8561831,2021-02-14,3500,AK,17
2060.0,Bristol Bay,Alaska,58.74513976,-156.701064,2021-02-14,0,AK,0
2164.0,Bristol Bay plus Lake and Peninsula,Alaska,58.62403337,-156.21405890000003,2021-02-14,180,AK,0
2068.0,Denali,Alaska,63.67264044,-150.0076108,2021-02-14,68,AK,0
2070.0,Dillingham,Alaska,59.79603738,-158.23819419999995,2021-02-14,192,AK,1
2090.0,Fairbanks North Star,Alaska,64.80726247,-146.5692662,2021-02-14,6027,AK,26
2100.0,Haines,Alaska,59.09893571,-135.4679843,2021-02-14,27,AK,0
2105.0,Hoonah-Angoon,Alaska,58.29307365,-135.64244240000002,2021-02-14,0,AK,0
2110.0,Juneau,Alaska,58.45031811,-134.200436,2021-02-14,1208,AK,5
2122.0,Kenai Peninsula,Alaska,60.24429722,-151.53888840000005,2021-02-14,3967,AK,22
2130.0,Ketchikan Gateway,Alaska,55.57445008,-130.975561,2021-02-14,308,AK,2
2150.0,Kodiak Island,Alaska,57.65529415,-153.7493579,2021-02-14,1044,AK,5
2158.0,Kusilvak,Alaska,62.15429159999999,-163.39678830000005,2021-02-14,1178,AK,3
2170.0,Matanuska-Susitna,Alaska,62.31305045,-149.5741743,2021-02-14,7986,AK,31
2180.0,Nome,Alaska,64.90320724,-164.0353804,2021-02-14,320,AK,0
2185.0,North Slope,Alaska,69.31479216,-153.4836093,2021-02-14,994,AK,3
2188.0,Northwest Arctic,Alaska,67.04919196,-159.7503946,2021-02-14,577,AK,1
80002.0,Out of AK,Alaska,0.0,0.0,2021-02-14,0,AK,0
2195.0,Petersburg,Alaska,57.13978948,-132.9540995,2021-02-14,51,AK,1
2198.0,Prince of Wales-Hyder,Alaska,55.76261984,-133.0511621,2021-02-14,76,AK,1
2220.0,Sitka,Alaska,57.24124555,-135.3206587,2021-02-14,307,AK,0
2230.0,Skagway,Alaska,59.56149996,-135.3337748,2021-02-14,17,AK,0
2240.0,Southeast Fairbanks,Alaska,63.87692095,-143.2127643,2021-02-14,445,AK,3
90002.0,Unassigned,Alaska,0.0,0.0,2021-02-14,253,AK,0
2261.0,Valdez-Cordova,Alaska,61.47502768,-144.7126799,2021-02-14,458,AK,3
2275.0,Wrangell,Alaska,56.3202004,-132.05837309999998,2021-02-14,27,AK,0
2282.0,Yakutat,Alaska,59.8909808,-140.36014509999998,2021-02-14,66,AK,1
2290.0,Yukon-Koyukuk,Alaska,65.50815459,-151.3907387,2021-02-14,319,AK,4
60.0,,American Samoa,-14.271,-170.132,2021-02-14,0,,0
4001.0,Apache,Arizona,35.39465006,-109.4892383,2021-02-14,10147,AZ,350
4003.0,Cochise,Arizona,31.87934684,-109.7516088,2021-02-14,10814,AZ,252
4005.0,Coconino,Arizona,35.83883429,-111.7707178,2021-02-14,15997,AZ,302
4007.0,Gila,Arizona,33.80190085,-110.8132779,2021-02-14,6287,AZ,206
4009.0,Graham,Arizona,32.93166885,-109.8882178,2021-02-14,5217,AZ,68
4011.0,Greenlee,Arizona,33.21498827,-109.2405279,2021-02-14,544,AZ,7
4012.0,La Paz,Arizona,33.72854224,-113.9810029,2021-02-14,2352,AZ,67
4013.0,Maricopa,Arizona,33.34835867,-112.4918154,2021-02-14,498297,AZ,8505
4015.0,Mohave,Arizona,35.70471703,-113.7577902,2021-02-14,20534,AZ,600
4017.0,Navajo,Arizona,35.3997715,-110.3218983,2021-02-14,15234,AZ,474
80004.0,Out of AZ,Arizona,0.0,0.0,2021-02-14,0,AZ,0
4019.0,Pima,Arizona,32.0971334,-111.7890033,2021-02-14,106812,AZ,2075
4021.0,Pinal,Arizona,32.90525627,-111.3449483,2021-02-14,44720,AZ,709
4023.0,Santa Cruz,Arizona,31.52508998,-110.8479088,2021-02-14,7574,AZ,165
90004.0,Unassigned,Arizona,0.0,0.0,2021-02-14,1,AZ,0
4025.0,Yavapai,Arizona,34.59933926,-112.5538588,2021-02-14,16688,AZ,440
4027.0,Yuma,Arizona,32.76895712,-113.90666740000002,2021-02-14,36052,AZ,758
5001.0,Arkansas,Arkansas,34.29145151,-91.37277296,2021-02-14,1926,AR,37
5003.0,Ashley,Arkansas,33.19153461,-91.7698471,2021-02-14,1736,AR,29
5005.0,Baxter,Arkansas,36.28784385,-92.33782872,2021-02-14,2764,AR,95
5007.0,Benton,Arkansas,36.33644656,-94.25680817,2021-02-14,26457,AR,379
5009.0,Boone,Arkansas,36.3084504,-93.09374925,2021-02-14,3552,AR,76
5011.0,Bradley,Arkansas,33.46755808,-92.15980837,2021-02-14,1314,AR,31
5013.0,Calhoun,Arkansas,33.55598792,-92.49974403,2021-02-14,387,AR,3
5015.0,Carroll,Arkansas,36.34038560000001,-93.54270261,2021-02-14,2698,AR,40
5017.0,Chicot,Arkansas,33.26458973,-91.29539209,2021-02-14,1581,AR,40
5019.0,Clark,Arkansas,34.04613432,-93.17484713,2021-02-14,1974,AR,36
5021.0,Clay,Arkansas,36.36826212,-90.4148172,2021-02-14,1654,AR,44
5023.0,Cleburne,Arkansas,35.53864922,-92.02640019,2021-02-14,1856,AR,65
5025.0,Cleveland,Arkansas,33.89723187,-92.18537045,2021-02-14,907,AR,23
5027.0,Columbia,Arkansas,33.21230701,-93.22642793,2021-02-14,2085,AR,53
5029.0,Conway,Arkansas,35.26205537,-92.70506566,2021-02-14,2121,AR,31
5031.0,Craighead,Arkansas,35.83018283,-90.63235729,2021-02-14,12612,AR,174
5033.0,Crawford,Arkansas,35.58928601,-94.2446814,2021-02-14,6635,AR,101
5035.0,Crittenden,Arkansas,35.21247318,-90.30839406,2021-02-14,5604,AR,91
5037.0,Cross,Arkansas,35.29631396,-90.77185818,2021-02-14,1877,AR,47
5039.0,Dallas,Arkansas,33.97042763,-92.65167437,2021-02-14,711,AR,12
5041.0,Desha,Arkansas,33.83011025,-91.25500948,2021-02-14,1297,AR,21
5043.0,Drew,Arkansas,33.59035001,-91.71777921,2021-02-14,1939,AR,34
5045.0,Faulkner,Arkansas,35.14719007,-92.33717519,2021-02-14,11451,AR,148
5047.0,Franklin,Arkansas,35.51202821,-93.89299569,2021-02-14,1581,AR,32
5049.0,Fulton,Arkansas,36.38177105,-91.81729127,2021-02-14,1054,AR,44
5051.0,Garland,Arkansas,34.57692074,-93.14921604,2021-02-14,9306,AR,225
5053.0,Grant,Arkansas,34.29017991,-92.42320562,2021-02-14,1532,AR,31
5055.0,Greene,Arkansas,36.11735460000001,-90.55832668,2021-02-14,5744,AR,73
5057.0,Hempstead,Arkansas,33.73325583,-93.66935133,2021-02-14,1773,AR,17
5059.0,Hot Spring,Arkansas,34.31709259,-92.95396325,2021-02-14,4691,AR,68
5061.0,Howard,Arkansas,34.09007427,-93.9934871,2021-02-14,1491,AR,24
5063.0,Independence,Arkansas,35.74242707,-91.57001641,2021-02-14,3616,AR,119
5065.0,Izard,Arkansas,36.09604046,-91.90847954,2021-02-14,1637,AR,39
5067.0,Jackson,Arkansas,35.59802983,-91.21494602,2021-02-14,3122,AR,33
5069.0,Jefferson,Arkansas,34.26767081,-91.92619839,2021-02-14,8459,AR,161
5071.0,Johnson,Arkansas,35.56759135,-93.46036368,2021-02-14,2642,AR,31
5073.0,Lafayette,Arkansas,33.24116713,-93.60677071,2021-02-14,491,AR,7
5075.0,Lawrence,Arkansas,36.04188196,-91.10867198,2021-02-14,1985,AR,41
5077.0,Lee,Arkansas,34.78498904,-90.78383866,2021-02-14,1628,AR,35
5079.0,Lincoln,Arkansas,33.95317155,-91.74002806,2021-02-14,3120,AR,42
5081.0,Little River,Arkansas,33.70375665,-94.23468591,2021-02-14,1112,AR,40
5083.0,Logan,Arkansas,35.21413234,-93.71951016,2021-02-14,2130,AR,18
5085.0,Lonoke,Arkansas,34.75392199,-91.88742357,2021-02-14,6581,AR,108
5087.0,Madison,Arkansas,36.01038185,-93.72524943,2021-02-14,1390,AR,20
5089.0,Marion,Arkansas,36.26844485,-92.68451899,2021-02-14,917,AR,30
5091.0,Miller,Arkansas,33.31403423,-93.89285258,2021-02-14,3696,AR,33
5093.0,Mississippi,Arkansas,35.76271485,-90.05194370000002,2021-02-14,5500,AR,112
5095.0,Monroe,Arkansas,34.6815935,-91.20540287,2021-02-14,810,AR,17
5097.0,Montgomery,Arkansas,34.53704874,-93.65824478,2021-02-14,712,AR,28
5099.0,Nevada,Arkansas,33.66340119,-93.30632432,2021-02-14,760,AR,24
5101.0,Newton,Arkansas,35.91947491,-93.21612969,2021-02-14,670,AR,26
5103.0,Ouachita,Arkansas,33.58839816,-92.87795984,2021-02-14,2122,AR,49
80005.0,Out of AR,Arkansas,0.0,0.0,2021-02-14,0,AR,0
5105.0,Perry,Arkansas,34.9459153,-92.94372564,2021-02-14,779,AR,7
5107.0,Phillips,Arkansas,34.43268455,-90.84800154,2021-02-14,1666,AR,33
5109.0,Pike,Arkansas,34.16250414,-93.65789349,2021-02-14,932,AR,21
5111.0,Poinsett,Arkansas,35.57433534,-90.66268713,2021-02-14,3044,AR,74
5113.0,Polk,Arkansas,34.48254879,-94.22728802,2021-02-14,1836,AR,61
5115.0,Pope,Arkansas,35.44871474,-93.03212219,2021-02-14,7529,AR,96
5117.0,Prairie,Arkansas,34.83624419,-91.55162157,2021-02-14,854,AR,24
5119.0,Pulaski,Arkansas,34.77054088,-92.31355101,2021-02-14,36448,AR,560
5121.0,Randolph,Arkansas,36.3415714,-91.02455531,2021-02-14,1908,AR,49
5125.0,Saline,Arkansas,34.64916145,-92.67583224,2021-02-14,11182,AR,159
5127.0,Scott,Arkansas,34.85588887,-94.0632176,2021-02-14,915,AR,14
5129.0,Searcy,Arkansas,35.9109364,-92.69936482,2021-02-14,636,AR,15
5131.0,Sebastian,Arkansas,35.19605503,-94.27162713,2021-02-14,14249,AR,255
5133.0,Sevier,Arkansas,33.99780401,-94.2424869,2021-02-14,2534,AR,28
5135.0,Sharp,Arkansas,36.16258158,-91.47819342,2021-02-14,1510,AR,50
5123.0,St. Francis,Arkansas,35.02201976,-90.74828138,2021-02-14,3401,AR,37
5137.0,Stone,Arkansas,35.86251946,-92.15684085,2021-02-14,948,AR,30
90005.0,Unassigned,Arkansas,0.0,0.0,2021-02-14,2843,AR,0
5139.0,Union,Arkansas,33.16887091,-92.59746952,2021-02-14,3594,AR,98
5141.0,Van Buren,Arkansas,35.58095779,-92.51295036,2021-02-14,1143,AR,16
5143.0,Washington,Arkansas,35.976844,-94.21800746,2021-02-14,28784,AR,327
5145.0,White,Arkansas,35.25688493,-91.74908296,2021-02-14,6997,AR,100
5147.0,Woodruff,Arkansas,35.18902527,-91.2439489,2021-02-14,600,AR,8
5149.0,Yell,Arkansas,35.00292371,-93.41171338,2021-02-14,3286,AR,66
6001.0,Alameda,California,37.64629437,-121.8929271,2021-02-14,78356,CA,1120
6003.0,Alpine,California,38.59678594,-119.8223594,2021-02-14,79,CA,0
6005.0,Amador,California,38.44583082,-120.65696,2021-02-14,3387,CA,38
6007.0,Butte,California,39.66727762,-121.6005252,2021-02-14,10699,CA,149
6009.0,Calaveras,California,38.20537103,-120.552913,2021-02-14,1863,CA,25
6011.0,Colusa,California,39.17881957,-122.2331726,2021-02-14,2069,CA,11
6013.0,Contra Costa,California,37.91923498,-121.9289527,2021-02-14,60537,CA,622
6015.0,Del Norte,California,41.74228275,-123.8974063,2021-02-14,929,CA,4
6017.0,El Dorado,California,38.77965956,-120.5233166,2021-02-14,8855,CA,90
6019.0,Fresno,California,36.75733899,-119.6466953,2021-02-14,92807,CA,1291
6021.0,Glenn,California,39.59875897,-122.3938452,2021-02-14,2182,CA,23
6023.0,Humboldt,California,40.69923009,-123.876044,2021-02-14,3009,CA,32
6025.0,Imperial,California,33.0393082,-115.3669042,2021-02-14,26680,CA,584
6027.0,Inyo,California,36.51112084,-117.41119779999998,2021-02-14,1193,CA,34
6029.0,Kern,California,35.34329425,-118.7277796,2021-02-14,100290,CA,687
6031.0,Kings,California,36.07409056,-119.8159973,2021-02-14,21610,CA,208
6033.0,Lake,California,39.10124298,-122.7536244,2021-02-14,3025,CA,37
6035.0,Lassen,California,40.67311306,-120.59350990000002,2021-02-14,5498,CA,19
6037.0,Los Angeles,California,34.30828379,-118.2282411,2021-02-14,1166552,CA,19068
6039.0,Madera,California,37.21513971,-119.76655890000002,2021-02-14,15053,CA,189
6041.0,Marin,California,38.07122463,-122.7210631,2021-02-14,12843,CA,184
6043.0,Mariposa,California,37.57978556,-119.9073334,2021-02-14,388,CA,5
6045.0,Mendocino,California,39.4381191,-123.3911313,2021-02-14,3723,CA,40
6047.0,Merced,California,37.18922369,-120.7209035,2021-02-14,27701,CA,375
6049.0,Modoc,California,41.58965602,-120.7244817,2021-02-14,441,CA,4
6051.0,Mono,California,37.93899289,-118.8872409,2021-02-14,1198,CA,4
6053.0,Monterey,California,36.21862405,-121.2413397,2021-02-14,41341,CA,307
6055.0,Napa,California,38.50735751,-122.332839,2021-02-14,8809,CA,62
6057.0,Nevada,California,39.30394768,-120.7627281,2021-02-14,3742,CA,74
6059.0,Orange,California,33.70147516,-117.76459979999998,2021-02-14,256889,CA,3577
80006.0,Out of CA,California,0.0,0.0,2021-02-14,0,CA,0
6061.0,Placer,California,39.06167234,-120.7240569,2021-02-14,19214,CA,222
6063.0,Plumas,California,40.00355989,-120.8395236,2021-02-14,641,CA,6
6065.0,Riverside,California,33.74314981,-115.9933578,2021-02-14,285414,CA,3524
6067.0,Sacramento,California,38.45106826,-121.3425374,2021-02-14,90401,CA,1372
6069.0,San Benito,California,36.60308176,-121.069975,2021-02-14,5633,CA,57
6071.0,San Bernardino,California,34.84060306,-116.1774685,2021-02-14,282169,CA,2392
6073.0,San Diego,California,33.03484597,-116.7365326,2021-02-14,252250,CA,3037
6075.0,San Francisco,California,37.75215114,-122.4385672,2021-02-14,33291,CA,366
6077.0,San Joaquin,California,37.93433732,-121.2730061,2021-02-14,64969,CA,992
6079.0,San Luis Obispo,California,35.38822029,-120.4039028,2021-02-14,18889,CA,205
6081.0,San Mateo,California,37.4228808,-122.32755459999998,2021-02-14,37745,CA,474
6083.0,Santa Barbara,California,34.65329488,-120.0188492,2021-02-14,30862,CA,372
6085.0,Santa Clara,California,37.23104908,-121.6970462,2021-02-14,107397,CA,1666
6087.0,Santa Cruz,California,37.05580291,-122.0066524,2021-02-14,14232,CA,168
6089.0,Shasta,California,40.76391419,-122.0396884,2021-02-14,10718,CA,170
6091.0,Sierra,California,39.57713498,-120.52007009999998,2021-02-14,97,CA,0
6093.0,Siskiyou,California,41.59198861,-122.5407434,2021-02-14,1664,CA,13
6095.0,Solano,California,38.26827353,-121.9357113,2021-02-14,29251,CA,140
6097.0,Sonoma,California,38.52746429,-122.8862506,2021-02-14,27249,CA,287
6099.0,Stanislaus,California,37.55862499,-120.9970722,2021-02-14,54148,CA,899
6101.0,Sutter,California,39.03417539,-121.6945899,2021-02-14,8656,CA,93
6103.0,Tehama,California,40.12570935,-122.2370171,2021-02-14,4930,CA,51
6105.0,Trinity,California,40.64917670000001,-123.114713,2021-02-14,321,CA,5
6107.0,Tulare,California,36.22026558,-118.8020203,2021-02-14,46714,CA,691
6109.0,Tuolumne,California,38.02644018,-119.9525093,2021-02-14,3800,CA,52
90006.0,Unassigned,California,0.0,0.0,2021-02-14,0,CA,0
6111.0,Ventura,California,34.44465746,-119.0910613,2021-02-14,75481,CA,732
6113.0,Yolo,California,38.68278902,-121.9018288,2021-02-14,12374,CA,172
6115.0,Yuba,California,39.26255932,-121.3535644,2021-02-14,5583,CA,36
8001.0,Adams,Colorado,39.87432092,-104.3362578,2021-02-14,47102,CO,601
8003.0,Alamosa,Colorado,37.57250606,-105.7885451,2021-02-14,1230,CO,28
8005.0,Arapahoe,Colorado,39.64977461,-104.3353617,2021-02-14,46924,CO,642
8007.0,Archuleta,Colorado,37.19474156,-107.0476867,2021-02-14,625,CO,1
8009.0,Baca,Colorado,37.31940883,-102.5603223,2021-02-14,270,CO,4
8011.0,Bent,Colorado,37.95474293,-103.0720195,2021-02-14,1421,CO,21
8013.0,Boulder,Colorado,40.09313619,-105.3546767,2021-02-14,18104,CO,223
8014.0,Broomfield,Colorado,39.95998787,-105.0566324,2021-02-14,3596,CO,73
8015.0,Chaffee,Colorado,38.74745778,-106.19265729999998,2021-02-14,1380,CO,23
8017.0,Cheyenne,Colorado,38.82777431,-102.6032558,2021-02-14,124,CO,5
8019.0,Clear Creek,Colorado,39.68864463,-105.6463118,2021-02-14,354,CO,2
8021.0,Conejos,Colorado,37.201606,-106.19174879999998,2021-02-14,424,CO,7
8023.0,Costilla,Colorado,37.27732493,-105.4276548,2021-02-14,173,CO,2
8025.0,Crowley,Colorado,38.32608609,-103.7844965,2021-02-14,1932,CO,14
8027.0,Custer,Colorado,38.10883162,-105.3683478,2021-02-14,163,CO,1
8029.0,Delta,Colorado,38.86246243,-107.8631342,2021-02-14,2422,CO,56
8031.0,Denver,Colorado,39.76018276,-104.8725695,2021-02-14,57790,CO,749
8033.0,Dolores,Colorado,37.75208676,-108.5211585,2021-02-14,65,CO,0
8035.0,Douglas,Colorado,39.33133796,-104.930001,2021-02-14,20257,CO,219
8037.0,Eagle,Colorado,39.62754308,-106.6933637,2021-02-14,4732,CO,20
8041.0,El Paso,Colorado,38.83240149,-104.5251411,2021-02-14,49978,CO,728
8039.0,Elbert,Colorado,39.28656773,-104.1358721,2021-02-14,1230,CO,12
8043.0,Fremont,Colorado,38.47362326,-105.4399667,2021-02-14,5287,CO,43
8045.0,Garfield,Colorado,39.59921777,-107.902708,2021-02-14,4969,CO,38
8047.0,Gilpin,Colorado,39.85646523,-105.5252597,2021-02-14,162,CO,3
8049.0,Grand,Colorado,40.10603347,-106.1178042,2021-02-14,1166,CO,5
8051.0,Gunnison,Colorado,38.66611652,-107.0320729,2021-02-14,1175,CO,6
8053.0,Hinsdale,Colorado,37.82247444,-107.3004345,2021-02-14,16,CO,0
8055.0,Huerfano,Colorado,37.68473101,-104.9612585,2021-02-14,299,CO,17
8057.0,Jackson,Colorado,40.66593870000001,-106.3408905,2021-02-14,48,CO,0
8059.0,Jefferson,Colorado,39.58635604,-105.2517692,2021-02-14,36010,CO,698
8061.0,Kiowa,Colorado,38.43260896,-102.7392145,2021-02-14,91,CO,3
8063.0,Kit Carson,Colorado,39.30497777,-102.6022199,2021-02-14,521,CO,10
8067.0,La Plata,Colorado,37.28632032,-107.8429014,2021-02-14,2842,CO,36
8065.0,Lake,Colorado,39.20278823,-106.3555697,2021-02-14,624,CO,0
8069.0,Larimer,Colorado,40.66671597,-105.4625784,2021-02-14,19003,CO,214
8071.0,Las Animas,Colorado,37.3153406,-104.0376458,2021-02-14,963,CO,11
8073.0,Lincoln,Colorado,38.98749519,-103.5136649,2021-02-14,973,CO,3
8075.0,Logan,Colorado,40.7249637,-103.110817,2021-02-14,3691,CO,64
8077.0,Mesa,Colorado,39.01787888,-108.469799,2021-02-14,12903,CO,185
8079.0,Mineral,Colorado,37.66954283,-106.9281698,2021-02-14,61,CO,1
8081.0,Moffat,Colorado,40.61810999,-108.2070876,2021-02-14,648,CO,22
8083.0,Montezuma,Colorado,37.33859579,-108.5958857,2021-02-14,1688,CO,22
8085.0,Montrose,Colorado,38.40214114,-108.26390220000002,2021-02-14,3152,CO,51
8087.0,Morgan,Colorado,40.26279810000001,-103.8093302,2021-02-14,2403,CO,90
8089.0,Otero,Colorado,37.9014485,-103.7173385,2021-02-14,1812,CO,61
8091.0,Ouray,Colorado,38.14717457,-107.7675136,2021-02-14,237,CO,3
80008.0,Out of CO,Colorado,0.0,0.0,2021-02-14,0,CO,0
8093.0,Park,Colorado,39.120926,-105.7182065,2021-02-14,526,CO,5
8095.0,Phillips,Colorado,40.59414277,-102.3577703,2021-02-14,329,CO,11
8097.0,Pitkin,Colorado,39.21720112,-106.9310027,2021-02-14,1907,CO,4
8099.0,Prowers,Colorado,37.95544985,-102.3926052,2021-02-14,1155,CO,21
8101.0,Pueblo,Colorado,38.17359144,-104.5127437,2021-02-14,14794,CO,362
8103.0,Rio Blanco,Colorado,39.97913541,-108.2179009,2021-02-14,435,CO,3
8105.0,Rio Grande,Colorado,37.5836865,-106.3847838,2021-02-14,665,CO,12
8107.0,Routt,Colorado,40.48596505,-106.9905548,2021-02-14,1795,CO,19
8109.0,Saguache,Colorado,38.08054629,-106.282466,2021-02-14,306,CO,4
8111.0,San Juan,Colorado,37.76248981,-107.67632890000002,2021-02-14,43,CO,0
8113.0,San Miguel,Colorado,38.00450883,-108.4020725,2021-02-14,791,CO,0
8115.0,Sedgwick,Colorado,40.87595412,-102.3519227,2021-02-14,189,CO,2
8117.0,Summit,Colorado,39.63803232,-106.1150762,2021-02-14,2896,CO,7
8119.0,Teller,Colorado,38.88133511,-105.1614893,2021-02-14,1225,CO,14
90008.0,Unassigned,Colorado,0.0,0.0,2021-02-14,48,CO,0
8121.0,Washington,Colorado,39.97015535,-103.202587,2021-02-14,367,CO,12
8123.0,Weld,Colorado,40.55499405,-104.3929621,2021-02-14,24632,CO,314
8125.0,Yuma,Colorado,40.00346839,-102.4258673,2021-02-14,693,CO,17
9001.0,Fairfield,Connecticut,41.26809896,-73.3881171,2021-02-14,76511,CT,1986
9003.0,Hartford,Connecticut,41.80283011,-72.73103891,2021-02-14,67328,CT,2223
9005.0,Litchfield,Connecticut,41.7937534,-73.2451475,2021-02-14,10604,CT,267
9007.0,Middlesex,Connecticut,41.45949668,-72.53714864,2021-02-14,9868,CT,332
9009.0,New Haven,Connecticut,41.4080325,-72.93620426,2021-02-14,67586,CT,1859
9011.0,New London,Connecticut,41.48896435,-72.10430976,2021-02-14,18226,CT,391
80009.0,Out of CT,Connecticut,0.0,0.0,2021-02-14,0,CT,0
9013.0,Tolland,Connecticut,41.85853803,-72.3308481,2021-02-14,7445,CT,151
90009.0,Unassigned,Connecticut,0.0,0.0,2021-02-14,904,CT,8
9015.0,Windham,Connecticut,41.82972709,-71.98182316,2021-02-14,8865,CT,164
10001.0,Kent,Delaware,39.08646628,-75.56884914,2021-02-14,13736,DE,272
10003.0,New Castle,Delaware,39.57992638,-75.64054974,2021-02-14,47134,DE,614
80010.0,Out of DE,Delaware,0.0,0.0,2021-02-14,0,DE,0
10005.0,Sussex,Delaware,38.66143781,-75.39031349,2021-02-14,21945,DE,397
90010.0,Unassigned,Delaware,0.0,0.0,2021-02-14,188,DE,0
88888.0,,Diamond Princess,0.0,0.0,2021-02-14,49,,0
11001.0,District of Columbia,District of Columbia,38.90417773,-77.01655992,2021-02-14,38918,,979
80011.0,Out of DC,District of Columbia,0.0,0.0,2021-02-14,0,,0
90011.0,Unassigned,District of Columbia,0.0,0.0,2021-02-14,0,,0
12001.0,Alachua,Florida,29.67866525,-82.35928158,2021-02-14,21791,FL,195
12003.0,Baker,Florida,30.33060121,-82.28467476,2021-02-14,3225,FL,54
12005.0,Bay,Florida,30.26548745,-85.62122584,2021-02-14,17897,FL,318
12007.0,Bradford,Florida,29.95079741,-82.16611613,2021-02-14,2779,FL,49
12009.0,Brevard,Florida,28.29409504,-80.73091022,2021-02-14,32013,FL,703
12011.0,Broward,Florida,26.15184651,-80.48725556,2021-02-14,184773,FL,2256
12013.0,Calhoun,Florida,30.40666734,-85.19394153,2021-02-14,1584,FL,36
12015.0,Charlotte,Florida,26.90131002,-81.92949121,2021-02-14,10280,FL,331
12017.0,Citrus,Florida,28.84804315,-82.47614748,2021-02-14,9329,FL,362
12019.0,Clay,Florida,29.98319144,-81.85609986,2021-02-14,16227,FL,283
12021.0,Collier,Florida,26.11091986,-81.34687065,2021-02-14,29136,FL,430
12023.0,Columbia,Florida,30.22509788,-82.62160164,2021-02-14,7492,FL,149
12027.0,DeSoto,Florida,27.18677893,-81.80941373,2021-02-14,3549,FL,69
12029.0,Dixie,Florida,29.60631086,-83.15724673,2021-02-14,1435,FL,16
12031.0,Duval,Florida,30.33225875,-81.66976468,2021-02-14,86163,FL,1033
12033.0,Escambia,Florida,30.67652764,-87.37284571,2021-02-14,32743,FL,593
12035.0,Flagler,Florida,29.45933576,-81.31508595,2021-02-14,5637,FL,83
12037.0,Franklin,Florida,29.83791238,-84.82731662,2021-02-14,1268,FL,12
12039.0,Gadsden,Florida,30.57796289,-84.61915825,2021-02-14,5322,FL,77
12041.0,Gilchrist,Florida,29.72856978,-82.79880657,2021-02-14,1298,FL,29
12043.0,Glades,Florida,26.95635849,-81.18996211,2021-02-14,882,FL,15
12045.0,Gulf,Florida,29.93543004,-85.24270990000002,2021-02-14,1809,FL,35
12047.0,Hamilton,Florida,30.49673973,-82.94998918,2021-02-14,1546,FL,21
12049.0,Hardee,Florida,27.49293939,-81.80956574,2021-02-14,2712,FL,25
12051.0,Hendry,Florida,26.55386945,-81.16469006,2021-02-14,4192,FL,64
12053.0,Hernando,Florida,28.55364461,-82.42700204,2021-02-14,10677,FL,368
12055.0,Highlands,Florida,27.34254618,-81.34071957,2021-02-14,6917,FL,286
12057.0,Hillsborough,Florida,27.9276559,-82.32013172,2021-02-14,106420,FL,1397
12059.0,Holmes,Florida,30.86747479,-85.81319222,2021-02-14,2146,FL,42
12061.0,Indian River,Florida,27.69308961,-80.60556721,2021-02-14,10490,FL,252
12063.0,Jackson,Florida,30.7954597,-85.21500423,2021-02-14,5814,FL,138
12065.0,Jefferson,Florida,30.43669112,-83.89442308,2021-02-14,1372,FL,22
12067.0,Lafayette,Florida,29.98484137,-83.18166636,2021-02-14,1554,FL,24
12069.0,Lake,Florida,28.76202069,-81.7125123,2021-02-14,23442,FL,516
12071.0,Lee,Florida,26.58410348,-81.88399313,2021-02-14,55513,FL,854
12073.0,Leon,Florida,30.45955727,-84.27491114,2021-02-14,28076,FL,260
12075.0,Levy,Florida,29.31829741,-82.74007147,2021-02-14,2750,FL,27
12077.0,Liberty,Florida,30.23766008,-84.8829258,2021-02-14,1026,FL,14
12079.0,Madison,Florida,30.44396917,-83.47398594,2021-02-14,1923,FL,39
12081.0,Manatee,Florida,27.47196942,-82.31831044,2021-02-14,30333,FL,547
12083.0,Marion,Florida,29.21227113,-82.05803627,2021-02-14,26333,FL,676
12085.0,Martin,Florida,27.0772071,-80.43109784,2021-02-14,10097,FL,268
12086.0,Miami-Dade,Florida,25.6112362,-80.55170587,2021-02-14,393971,FL,5170
12087.0,Monroe,Florida,25.20904673,-81.07812416,2021-02-14,5580,FL,42
12089.0,Nassau,Florida,30.61037141,-81.80297522,2021-02-14,7442,FL,106
12091.0,Okaloosa,Florida,30.69143028,-86.59267105,2021-02-14,17927,FL,311
12093.0,Okeechobee,Florida,27.386336199999995,-80.88944347,2021-02-14,3434,FL,69
12095.0,Orange,Florida,28.51367621,-81.31799498,2021-02-14,109453,FL,1015
12097.0,Osceola,Florida,28.06312234,-81.14882926,2021-02-14,35394,FL,400
80012.0,Out of FL,Florida,0.0,0.0,2021-02-14,0,FL,0
12099.0,Palm Beach,Florida,26.64676272,-80.46536002,2021-02-14,114467,FL,2322
12101.0,Pasco,Florida,28.30810945,-82.40227529,2021-02-14,31631,FL,602
12103.0,Pinellas,Florida,27.93130349,-82.72239666,2021-02-14,63171,FL,1371
12105.0,Polk,Florida,27.95027105,-81.69732947,2021-02-14,54435,FL,1056
12107.0,Putnam,Florida,29.60779729,-81.74230285,2021-02-14,5714,FL,113
12113.0,Santa Rosa,Florida,30.69341450000001,-87.02458128,2021-02-14,16497,FL,243
12115.0,Sarasota,Florida,27.18546175,-82.33174248,2021-02-14,25982,FL,676
12117.0,Seminole,Florida,28.7158582,-81.24060348,2021-02-14,25821,FL,399
12109.0,St. Johns,Florida,29.90096506,-81.43589967,2021-02-14,19532,FL,182
12111.0,St. Lucie,Florida,27.37763908,-80.47106649,2021-02-14,20960,FL,522
12119.0,Sumter,Florida,28.70181754,-82.0794267,2021-02-14,7597,FL,215
12121.0,Suwannee,Florida,30.19746066,-82.99099670000003,2021-02-14,4992,FL,119
12123.0,Taylor,Florida,30.04848048,-83.60445406,2021-02-14,2583,FL,38
90012.0,Unassigned,Florida,0.0,0.0,2021-02-14,3383,FL,0
12125.0,Union,Florida,30.04412971,-82.37497443,2021-02-14,1711,FL,70
12127.0,Volusia,Florida,29.05858895,-81.18263252,2021-02-14,33264,FL,604
12129.0,Wakulla,Florida,30.16548905,-84.39895211,2021-02-14,3099,FL,51
12131.0,Walton,Florida,30.64204028,-86.16935664,2021-02-14,6795,FL,76
12133.0,Washington,Florida,30.61359259,-85.66002461,2021-02-14,2573,FL,39
13001.0,Appling,Georgia,31.74847232,-82.28909114,2021-02-14,2135,GA,59
13003.0,Atkinson,Georgia,31.29633502,-82.87545866,2021-02-14,958,GA,16
13005.0,Bacon,Georgia,31.55456473,-82.45936528,2021-02-14,1339,GA,32
13007.0,Baker,Georgia,31.32669878,-84.44218806,2021-02-14,215,GA,6
13009.0,Baldwin,Georgia,33.06882326,-83.24701748,2021-02-14,4152,GA,99
13011.0,Banks,Georgia,34.35607081,-83.49644388,2021-02-14,1620,GA,30
13013.0,Barrow,Georgia,33.99148694,-83.71436292,2021-02-14,8533,GA,108
13015.0,Bartow,Georgia,34.23732119,-84.83887523,2021-02-14,12166,GA,180
13017.0,Ben Hill,Georgia,31.76095874,-83.22145359,2021-02-14,1996,GA,69
13019.0,Berrien,Georgia,31.27590016,-83.22529920000002,2021-02-14,1632,GA,40
13021.0,Bibb,Georgia,32.80904227,-83.70489165,2021-02-14,14003,GA,354
13023.0,Bleckley,Georgia,32.43829035,-83.33035166,2021-02-14,1374,GA,44
13025.0,Brantley,Georgia,31.19576557,-81.97743999,2021-02-14,1473,GA,27
13027.0,Brooks,Georgia,30.83922642,-83.58303423,2021-02-14,1231,GA,43
13029.0,Bryan,Georgia,32.00979311,-81.44002948,2021-02-14,2951,GA,28
13031.0,Bulloch,Georgia,32.39577406,-81.74811421,2021-02-14,6173,GA,84
13033.0,Burke,Georgia,33.05917989,-81.99928721,2021-02-14,2295,GA,49
13035.0,Butts,Georgia,33.283094500000004,-83.95435040000002,2021-02-14,2545,GA,68
13037.0,Calhoun,Georgia,31.53169785,-84.62725131,2021-02-14,556,GA,14
13039.0,Camden,Georgia,30.92951916,-81.66601818,2021-02-14,3522,GA,29
13043.0,Candler,Georgia,32.40209349,-82.07702563,2021-02-14,887,GA,52
13045.0,Carroll,Georgia,33.58138199,-85.07976677,2021-02-14,10185,GA,190
13047.0,Catoosa,Georgia,34.89872298,-85.13757014,2021-02-14,5238,GA,56
13049.0,Charlton,Georgia,30.78371028,-82.13951596,2021-02-14,1275,GA,24
13051.0,Chatham,Georgia,32.00043026,-81.12489526,2021-02-14,19759,GA,338
13053.0,Chattahoochee,Georgia,32.34341231,-84.78809239,2021-02-14,2890,GA,11
13055.0,Chattooga,Georgia,34.47197698,-85.34535662,2021-02-14,2475,GA,60
13057.0,Cherokee,Georgia,34.24393976,-84.47431861,2021-02-14,25714,GA,237
13059.0,Clarke,Georgia,33.95436462,-83.37124007,2021-02-14,13701,GA,106
13061.0,Clay,Georgia,31.62221166,-84.97713865,2021-02-14,227,GA,3
13063.0,Clayton,Georgia,33.54187245,-84.35594188,2021-02-14,22068,GA,352
13065.0,Clinch,Georgia,30.91395822,-82.70432472,2021-02-14,889,GA,21
13067.0,Cobb,Georgia,33.94243204,-84.5761255,2021-02-14,66632,GA,834
13069.0,Coffee,Georgia,31.54892966,-82.85492059999999,2021-02-14,5029,GA,138
13071.0,Colquitt,Georgia,31.18810588,-83.7677946,2021-02-14,4203,GA,85
13073.0,Columbia,Georgia,33.54534185,-82.263524,2021-02-14,15122,GA,175
13075.0,Cook,Georgia,31.16068491,-83.42947229,2021-02-14,1648,GA,37
13077.0,Coweta,Georgia,33.35334302,-84.76129976,2021-02-14,12140,GA,142
13079.0,Crawford,Georgia,32.71391813,-83.98061238,2021-02-14,598,GA,13
13081.0,Crisp,Georgia,31.92289565,-83.76811843,2021-02-14,1880,GA,56
13083.0,Dade,Georgia,34.854916700000004,-85.50490424,2021-02-14,1187,GA,10
13085.0,Dawson,Georgia,34.44244079,-84.16964071,2021-02-14,2676,GA,33
13089.0,DeKalb,Georgia,33.76944049,-84.22396017,2021-02-14,54510,GA,737
13087.0,Decatur,Georgia,30.87967778,-84.57619536,2021-02-14,2668,GA,61
13091.0,Dodge,Georgia,32.17265114,-83.16948926,2021-02-14,2035,GA,91
13093.0,Dooly,Georgia,32.15630737,-83.79746561,2021-02-14,963,GA,37
13095.0,Dougherty,Georgia,31.53328528,-84.21722377,2021-02-14,6908,GA,264
13097.0,Douglas,Georgia,33.70291126,-84.77026156,2021-02-14,12794,GA,167
13099.0,Early,Georgia,31.32155345,-84.90255207,2021-02-14,1097,GA,44
13101.0,Echols,Georgia,30.71101099,-82.89687287,2021-02-14,439,GA,6
13103.0,Effingham,Georgia,32.36616021,-81.34280942,2021-02-14,3933,GA,54
13105.0,Elbert,Georgia,34.11302332,-82.83936148,2021-02-14,2167,GA,54
13107.0,Emanuel,Georgia,32.59221302,-82.30239915,2021-02-14,2399,GA,76
13109.0,Evans,Georgia,32.15328841,-81.8870105,2021-02-14,883,GA,19
13111.0,Fannin,Georgia,34.86430205,-84.316964,2021-02-14,2087,GA,59
13113.0,Fayette,Georgia,33.41357794,-84.49089434,2021-02-14,7461,GA,127
13115.0,Floyd,Georgia,34.26268279,-85.21577392,2021-02-14,10497,GA,181
13117.0,Forsyth,Georgia,34.22604035,-84.12315129999998,2021-02-14,18224,GA,135
13119.0,Franklin,Georgia,34.37525597,-83.23159927,2021-02-14,2464,GA,40
13121.0,Fulton,Georgia,33.79216944,-84.46319413,2021-02-14,81871,GA,1050
13123.0,Gilmer,Georgia,34.69316688,-84.45802506,2021-02-14,2687,GA,63
13125.0,Glascock,Georgia,33.22879932,-82.61297636,2021-02-14,243,GA,14
13127.0,Glynn,Georgia,31.23279254,-81.53811412,2021-02-14,7273,GA,154
13129.0,Gordon,Georgia,34.50487351,-84.87296253,2021-02-14,6897,GA,93
13131.0,Grady,Georgia,30.87454847,-84.23418364,2021-02-14,1943,GA,51
13133.0,Greene,Georgia,33.5769205,-83.17139104,2021-02-14,1645,GA,42
13135.0,Gwinnett,Georgia,33.96044201,-84.02137802,2021-02-14,88564,GA,868
13137.0,Habersham,Georgia,34.63331566,-83.53094677,2021-02-14,4706,GA,135
13139.0,Hall,Georgia,34.32207823,-83.81896936,2021-02-14,24855,GA,373
13141.0,Hancock,Georgia,33.2721566,-82.99766919,2021-02-14,852,GA,55
13143.0,Haralson,Georgia,33.79602175,-85.21005667,2021-02-14,2368,GA,70
13145.0,Harris,Georgia,32.73709786,-84.90538572,2021-02-14,2230,GA,42
13147.0,Hart,Georgia,34.34626973,-82.96567682,2021-02-14,2171,GA,49
13149.0,Heard,Georgia,33.29686567,-85.12886832,2021-02-14,775,GA,16
13151.0,Henry,Georgia,33.4533428,-84.14814659999998,2021-02-14,20481,GA,236
13153.0,Houston,Georgia,32.45802497,-83.66879087,2021-02-14,12674,GA,195
13155.0,Irwin,Georgia,31.60213036,-83.27501387,2021-02-14,865,GA,25
13157.0,Jackson,Georgia,34.13794553,-83.56814788,2021-02-14,8742,GA,119
13159.0,Jasper,Georgia,33.31535543,-83.68844964,2021-02-14,1241,GA,28
13161.0,Jeff Davis,Georgia,31.80405727,-82.63724870000001,2021-02-14,1705,GA,41
13163.0,Jefferson,Georgia,33.05867328,-82.41609057,2021-02-14,1810,GA,54
13165.0,Jenkins,Georgia,32.79248718,-81.96040187,2021-02-14,798,GA,38
13167.0,Johnson,Georgia,32.70211082,-82.66166794,2021-02-14,1052,GA,45
13169.0,Jones,Georgia,33.02512137,-83.56019163,2021-02-14,1801,GA,38
13171.0,Lamar,Georgia,33.07841647,-84.14263877,2021-02-14,1807,GA,43
13173.0,Lanier,Georgia,31.03828570000001,-83.06472457,2021-02-14,720,GA,10
13175.0,Laurens,Georgia,32.46325233,-82.92221316,2021-02-14,5270,GA,149
13177.0,Lee,Georgia,31.779330600000005,-84.14324253,2021-02-14,2519,GA,47
13179.0,Liberty,Georgia,31.82588896,-81.49251135,2021-02-14,2965,GA,46
13181.0,Lincoln,Georgia,33.79201475,-82.45024131,2021-02-14,701,GA,19
13183.0,Long,Georgia,31.75218791,-81.74952375,2021-02-14,763,GA,11
13185.0,Lowndes,Georgia,30.83568832,-83.27056716,2021-02-14,11162,GA,179
13187.0,Lumpkin,Georgia,34.57286511,-84.00425681,2021-02-14,2708,GA,53
13193.0,Macon,Georgia,32.35207048,-84.04234127,2021-02-14,763,GA,23
13195.0,Madison,Georgia,34.12920917,-83.21218732,2021-02-14,2927,GA,42
13197.0,Marion,Georgia,32.3483402,-84.52733571,2021-02-14,497,GA,13
13189.0,McDuffie,Georgia,33.47851918,-82.48252774,2021-02-14,2208,GA,39
13191.0,McIntosh,Georgia,31.49683595,-81.40163426,2021-02-14,702,GA,15
13199.0,Meriwether,Georgia,33.04163534,-84.68859732,2021-02-14,1787,GA,49
13201.0,Miller,Georgia,31.16568912,-84.73151117,2021-02-14,751,GA,7
13205.0,Mitchell,Georgia,31.22483255,-84.19381821,2021-02-14,1911,GA,73
13207.0,Monroe,Georgia,33.014289,-83.92097166,2021-02-14,2245,GA,86
13209.0,Montgomery,Georgia,32.17201038,-82.53527476,2021-02-14,841,GA,20
13211.0,Morgan,Georgia,33.59232073,-83.49129491,2021-02-14,1748,GA,13
13213.0,Murray,Georgia,34.78897608,-84.74993177,2021-02-14,4355,GA,62
13215.0,Muscogee,Georgia,32.50931999,-84.87142262,2021-02-14,13822,GA,323
13217.0,Newton,Georgia,33.55514538,-83.84547140000002,2021-02-14,8915,GA,185
13219.0,Oconee,Georgia,33.83749973,-83.43679568,2021-02-14,3467,GA,56
13221.0,Oglethorpe,Georgia,33.878629600000004,-83.08278123,2021-02-14,1339,GA,22
80013.0,Out of GA,Georgia,0.0,0.0,2021-02-14,28904,GA,474
13223.0,Paulding,Georgia,33.91969522,-84.86848792,2021-02-14,13750,GA,165
13225.0,Peach,Georgia,32.56934316,-83.82937,2021-02-14,2293,GA,43
13227.0,Pickens,Georgia,34.46589159,-84.46406611,2021-02-14,2935,GA,59
13229.0,Pierce,Georgia,31.35928155,-82.21598442,2021-02-14,2245,GA,48
13231.0,Pike,Georgia,33.09310242,-84.38790389,2021-02-14,1961,GA,30
13233.0,Polk,Georgia,34.00267074,-85.18677781,2021-02-14,5020,GA,70
13235.0,Pulaski,Georgia,32.23334561,-83.47549959999998,2021-02-14,835,GA,34
13237.0,Putnam,Georgia,33.32056115,-83.37552891,2021-02-14,1926,GA,46
13239.0,Quitman,Georgia,31.86728114,-85.01773177,2021-02-14,151,GA,1
13241.0,Rabun,Georgia,34.88389445,-83.40304637,2021-02-14,1533,GA,39
13243.0,Randolph,Georgia,31.76622818,-84.75732369,2021-02-14,579,GA,32
13245.0,Richmond,Georgia,33.35777107,-82.07026432,2021-02-14,21978,GA,384
13247.0,Rockdale,Georgia,33.65145002,-84.02202167,2021-02-14,6179,GA,126
13249.0,Schley,Georgia,32.2654021,-84.31258912,2021-02-14,300,GA,2
13251.0,Screven,Georgia,32.74976524,-81.60779441,2021-02-14,865,GA,20
13253.0,Seminole,Georgia,30.93464824,-84.86823924,2021-02-14,886,GA,15
13255.0,Spalding,Georgia,33.26310031,-84.28013991,2021-02-14,5288,GA,146
13257.0,Stephens,Georgia,34.55151201,-83.29405315,2021-02-14,2892,GA,70
13259.0,Stewart,Georgia,32.07996777,-84.83208037,2021-02-14,807,GA,21
13261.0,Sumter,Georgia,32.03650571,-84.19821492,2021-02-14,2394,GA,89
13263.0,Talbot,Georgia,32.69642758,-84.53351366,2021-02-14,431,GA,15
13265.0,Taliaferro,Georgia,33.56543317,-82.88136816,2021-02-14,113,GA,0
13267.0,Tattnall,Georgia,32.04785085,-82.05539188,2021-02-14,2130,GA,53
13269.0,Taylor,Georgia,32.55792548,-84.25077141,2021-02-14,732,GA,22
13271.0,Telfair,Georgia,31.92829517,-82.93491155,2021-02-14,1220,GA,49
13273.0,Terrell,Georgia,31.77527543,-84.44069698,2021-02-14,735,GA,39
13275.0,Thomas,Georgia,30.86392347,-83.91847289,2021-02-14,4095,GA,106
13277.0,Tift,Georgia,31.45743864,-83.5236119,2021-02-14,4592,GA,114
13279.0,Toombs,Georgia,32.12059861,-82.32957247,2021-02-14,3133,GA,96
13281.0,Towns,Georgia,34.91369188,-83.74107459999998,2021-02-14,1057,GA,45
13283.0,Treutlen,Georgia,32.40422134,-82.56904553,2021-02-14,793,GA,22
13285.0,Troup,Georgia,33.03349196,-85.02812115,2021-02-14,6776,GA,184
13287.0,Turner,Georgia,31.71612656,-83.62069378,2021-02-14,941,GA,29
13289.0,Twiggs,Georgia,32.67435595,-83.43078662,2021-02-14,594,GA,32
90013.0,Unassigned,Georgia,0.0,0.0,2021-02-14,3980,GA,10
13291.0,Union,Georgia,34.82995757,-83.98967069,2021-02-14,2008,GA,65
13293.0,Upson,Georgia,32.87920671,-84.30024826,2021-02-14,3147,GA,107
13295.0,Walker,Georgia,34.73376362,-85.30165174,2021-02-14,6178,GA,74
13297.0,Walton,Georgia,33.78017694,-83.73552314,2021-02-14,8881,GA,195
13299.0,Ware,Georgia,31.05449097,-82.42224148,2021-02-14,4458,GA,133
13301.0,Warren,Georgia,33.41146451,-82.67795848,2021-02-14,486,GA,10
13303.0,Washington,Georgia,32.96711864,-82.79357039,2021-02-14,1898,GA,63
13305.0,Wayne,Georgia,31.5521809,-81.91894878,2021-02-14,3173,GA,69
13307.0,Webster,Georgia,32.04066113,-84.54742852,2021-02-14,131,GA,4
13309.0,Wheeler,Georgia,32.12009104,-82.72574721,2021-02-14,610,GA,22
13311.0,White,Georgia,34.64624278,-83.74905525,2021-02-14,2947,GA,67
13313.0,Whitfield,Georgia,34.80987459,-84.96093476,2021-02-14,15553,GA,204
13315.0,Wilcox,Georgia,31.97496928,-83.43438555,2021-02-14,765,GA,43
13317.0,Wilkes,Georgia,33.78290391,-82.74286107,2021-02-14,993,GA,21
13319.0,Wilkinson,Georgia,32.80291082,-83.17140684,2021-02-14,841,GA,21
13321.0,Worth,Georgia,31.55162306,-83.85090513,2021-02-14,1662,GA,60
99999.0,,Grand Princess,0.0,0.0,2021-02-14,103,,3
66.0,,Guam,13.4443,144.7937,2021-02-14,7689,,130
15001.0,Hawaii,Hawaii,19.60121157,-155.5210167,2021-02-14,2244,HI,53
15003.0,Honolulu,Hawaii,21.45803166,-157.97121819999995,2021-02-14,21794,HI,340
15005.0,Kalawao,Hawaii,21.17882515,-156.9583592,2021-02-14,0,HI,0
15007.0,Kauai,Hawaii,22.03935037,-159.5966786,2021-02-14,181,HI,1
15009.0,Maui,Hawaii,20.86399628,-156.56890969999995,2021-02-14,2553,HI,29
80015.0,Out of HI,Hawaii,0.0,0.0,2021-02-14,286,HI,2
90015.0,Unassigned,Hawaii,0.0,0.0,2021-02-14,0,HI,0
16001.0,Ada,Idaho,43.4526575,-116.24155159999998,2021-02-14,45775,ID,427
16003.0,Adams,Idaho,44.89333571,-116.4545247,2021-02-14,319,ID,3
16005.0,Bannock,Idaho,42.67002716,-112.2233311,2021-02-14,7644,ID,92
16007.0,Bear Lake,Idaho,42.28269683,-111.32892379999998,2021-02-14,339,ID,2
16009.0,Benewah,Idaho,47.21754179,-116.6586851,2021-02-14,548,ID,7
16011.0,Bingham,Idaho,43.21672879999999,-112.3978437,2021-02-14,4140,ID,62
16013.0,Blaine,Idaho,43.4085812,-113.9752658,2021-02-14,2106,ID,15
16015.0,Boise,Idaho,43.98829931,-115.7309284,2021-02-14,300,ID,2
16017.0,Bonner,Idaho,48.29996017,-116.6017932,2021-02-14,2886,ID,29
16019.0,Bonneville,Idaho,43.38713372,-111.6161537,2021-02-14,11738,ID,141
16021.0,Boundary,Idaho,48.76684761,-116.4630179,2021-02-14,784,ID,10
16023.0,Butte,Idaho,43.72592209,-113.1735463,2021-02-14,193,ID,1
16025.0,Camas,Idaho,43.46665742,-114.8065892,2021-02-14,69,ID,0
16027.0,Canyon,Idaho,43.61970148,-116.7095499,2021-02-14,24314,ID,267
16029.0,Caribou,Idaho,42.77149116,-111.5597683,2021-02-14,618,ID,11
16031.0,Cassia,Idaho,42.28347888,-113.6012409,2021-02-14,2830,ID,25
16033.0,Clark,Idaho,44.28496071,-112.3505704,2021-02-14,53,ID,0
16035.0,Clearwater,Idaho,46.67459924,-115.6622393,2021-02-14,989,ID,12
16037.0,Custer,Idaho,44.24186819,-114.2855494,2021-02-14,228,ID,3
16039.0,Elmore,Idaho,43.3507101,-115.4701578,2021-02-14,1565,ID,11
16041.0,Franklin,Idaho,42.18332217,-111.8149666,2021-02-14,1052,ID,14
16043.0,Fremont,Idaho,44.22800938,-111.4809943,2021-02-14,971,ID,14
16045.0,Gem,Idaho,44.06482372,-116.398376,2021-02-14,1679,ID,30
16047.0,Gooding,Idaho,42.96927962,-114.8108306,2021-02-14,1250,ID,24
16049.0,Idaho,Idaho,45.84721541,-115.4634436,2021-02-14,1153,ID,17
16051.0,Jefferson,Idaho,43.82078483,-112.3131749,2021-02-14,2359,ID,21
16053.0,Jerome,Idaho,42.68891267,-114.2655033,2021-02-14,2472,ID,19
16055.0,Kootenai,Idaho,47.67282258,-116.7020872,2021-02-14,16277,ID,170
16057.0,Latah,Idaho,46.81587887,-116.7113698,2021-02-14,2617,ID,6
16059.0,Lemhi,Idaho,44.9438088,-113.9309747,2021-02-14,488,ID,9
16061.0,Lewis,Idaho,46.23315327,-116.434146,2021-02-14,374,ID,6
16063.0,Lincoln,Idaho,43.0012336,-114.1358773,2021-02-14,482,ID,10
16065.0,Madison,Idaho,43.78141028,-111.65384740000002,2021-02-14,6105,ID,21
16067.0,Minidoka,Idaho,42.85518524,-113.6357257,2021-02-14,2262,ID,28
16069.0,Nez Perce,Idaho,46.32638236,-116.7500975,2021-02-14,3324,ID,50
16071.0,Oneida,Idaho,42.19494279999999,-112.5407838,2021-02-14,318,ID,3
80016.0,Out of ID,Idaho,0.0,0.0,2021-02-14,0,ID,0
16073.0,Owyhee,Idaho,42.58016894,-116.1693871,2021-02-14,992,ID,24
16075.0,Payette,Idaho,44.00545243,-116.7647695,2021-02-14,2359,ID,30
16077.0,Power,Idaho,42.69254894,-112.83957420000002,2021-02-14,620,ID,7
16079.0,Shoshone,Idaho,47.35364087,-115.8916749,2021-02-14,986,ID,31
16081.0,Teton,Idaho,43.75303583,-111.2056773,2021-02-14,1053,ID,4
16083.0,Twin Falls,Idaho,42.35440512,-114.6685381,2021-02-14,8897,ID,119
90016.0,Unassigned,Idaho,0.0,0.0,2021-02-14,0,ID,0
16085.0,Valley,Idaho,44.76728382,-115.5676773,2021-02-14,784,ID,5
16087.0,Washington,Idaho,44.45275475,-116.7847688,2021-02-14,1171,ID,21
17001.0,Adams,Illinois,39.98815591,-91.18786813,2021-02-14,7887,IL,111
17003.0,Alexander,Illinois,37.18049267,-89.32910838,2021-02-14,435,IL,8
17005.0,Bond,Illinois,38.88829622,-89.43534887,2021-02-14,1864,IL,23
17007.0,Boone,Illinois,42.32359279,-88.82345779,2021-02-14,5850,IL,71
17009.0,Brown,Illinois,39.96209138,-90.75068024,2021-02-14,648,IL,6
17011.0,Bureau,Illinois,41.40385234,-89.5283051,2021-02-14,3221,IL,73
17013.0,Calhoun,Illinois,39.16840183,-90.66330078,2021-02-14,469,IL,2
17015.0,Carroll,Illinois,42.06823429,-89.93395545,2021-02-14,1541,IL,33
17017.0,Cass,Illinois,39.96991073,-90.24734436,2021-02-14,1859,IL,22
17019.0,Champaign,Illinois,40.13919438,-88.20046615,2021-02-14,17420,IL,116
17021.0,Christian,Illinois,39.54581621,-89.27780482,2021-02-14,3241,IL,62
17023.0,Clark,Illinois,39.33425789,-87.78705622,2021-02-14,1645,IL,29
17025.0,Clay,Illinois,38.75388572,-88.48914513,2021-02-14,1409,IL,41
17027.0,Clinton,Illinois,38.60704876,-89.42385254,2021-02-14,5520,IL,88
17029.0,Coles,Illinois,39.51949084,-88.22358557,2021-02-14,5072,IL,89
17031.0,Cook,Illinois,41.84144849,-87.81658794,2021-02-14,465914,IL,9135
17033.0,Crawford,Illinois,39.0032229,-87.75954624,2021-02-14,1980,IL,21
17035.0,Cumberland,Illinois,39.27432424,-88.2401158,2021-02-14,1167,IL,17
17039.0,De Witt,Illinois,40.17514519,-88.90959682,2021-02-14,1259,IL,22
17037.0,DeKalb,Illinois,41.89373302,-88.76958483,2021-02-14,8067,IL,109
17041.0,Douglas,Illinois,39.76768052,-88.21854195,2021-02-14,2265,IL,29
17043.0,DuPage,Illinois,41.85116968,-88.08642662,2021-02-14,74877,IL,1153
17045.0,Edgar,Illinois,39.6809186,-87.74759563,2021-02-14,1527,IL,36
17047.0,Edwards,Illinois,38.41353228,-88.05720863,2021-02-14,515,IL,10
17049.0,Effingham,Illinois,39.05935711,-88.58969584,2021-02-14,4460,IL,68
17051.0,Fayette,Illinois,39.00072038,-89.02452658,2021-02-14,3049,IL,52
17053.0,Ford,Illinois,40.59706922,-88.22350769,2021-02-14,1512,IL,43
17055.0,Franklin,Illinois,37.99189086,-88.92567818,2021-02-14,4099,IL,65
17057.0,Fulton,Illinois,40.47289135,-90.20862357,2021-02-14,2787,IL,44
17059.0,Gallatin,Illinois,37.76430935,-88.22953869,2021-02-14,426,IL,4
17061.0,Greene,Illinois,39.35907414,-90.388865,2021-02-14,1362,IL,31
17063.0,Grundy,Illinois,41.28569601,-88.41905692,2021-02-14,4924,IL,61
17065.0,Hamilton,Illinois,38.08163641,-88.53883373,2021-02-14,776,IL,15
17067.0,Hancock,Illinois,40.40423981,-91.16313899,2021-02-14,1641,IL,28
17069.0,Hardin,Illinois,37.51810645,-88.26873022,2021-02-14,340,IL,11
17071.0,Henderson,Illinois,40.81908672,-90.92491462,2021-02-14,490,IL,8
17073.0,Henry,Illinois,41.3533994,-90.13296166,2021-02-14,4268,IL,53
17075.0,Iroquois,Illinois,40.74717633,-87.82466784,2021-02-14,2752,IL,59
17077.0,Jackson,Illinois,37.78595185,-89.38232563,2021-02-14,4546,IL,60
17079.0,Jasper,Illinois,39.01054275,-88.15437049,2021-02-14,1096,IL,17
17081.0,Jefferson,Illinois,38.29980057,-88.9240025,2021-02-14,3890,IL,114
17083.0,Jersey,Illinois,39.08869046,-90.35393073,2021-02-14,2449,IL,44
17085.0,Jo Daviess,Illinois,42.36542373,-90.21094405,2021-02-14,1583,IL,22
17087.0,Johnson,Illinois,37.45939802,-88.88165419,2021-02-14,1333,IL,11
17089.0,Kane,Illinois,41.93842729,-88.42861412,2021-02-14,49606,IL,699
17091.0,Kankakee,Illinois,41.13746989,-87.86205334,2021-02-14,12185,IL,186
17093.0,Kendall,Illinois,41.59081014,-88.42869583,2021-02-14,10772,IL,81
17095.0,Knox,Illinois,40.93148779,-90.21330340000002,2021-02-14,4931,IL,125
17099.0,LaSalle,Illinois,41.34426129999999,-88.88633881,2021-02-14,10478,IL,212
17097.0,Lake,Illinois,42.3224907,-88.00367925,2021-02-14,58006,IL,901
17101.0,Lawrence,Illinois,38.71987914,-87.72884035,2021-02-14,2259,IL,24
17103.0,Lee,Illinois,41.74583951,-89.29977132,2021-02-14,3285,IL,43
17105.0,Livingston,Illinois,40.89188292,-88.55784752,2021-02-14,4062,IL,72
17107.0,Logan,Illinois,40.12581572,-89.36638784,2021-02-14,3282,IL,51
17115.0,Macon,Illinois,39.86064913,-88.96342505,2021-02-14,9347,IL,180
17117.0,Macoupin,Illinois,39.26119767,-89.92424028,2021-02-14,4275,IL,73
17119.0,Madison,Illinois,38.83042506,-89.90422563,2021-02-14,27338,IL,442
17121.0,Marion,Illinois,38.64963204,-88.91899208,2021-02-14,4225,IL,110
17123.0,Marshall,Illinois,41.0327901,-89.34510444,2021-02-14,821,IL,14
17125.0,Mason,Illinois,40.23917274,-89.91824452,2021-02-14,1259,IL,41
17127.0,Massac,Illinois,37.22078441,-88.71036614,2021-02-14,1230,IL,31
17109.0,McDonough,Illinois,40.45674722,-90.67775541,2021-02-14,2287,IL,40
17111.0,McHenry,Illinois,42.32451172,-88.45248227,2021-02-14,23638,IL,259
17113.0,McLean,Illinois,40.48996987,-88.84621113,2021-02-14,14274,IL,152
17129.0,Menard,Illinois,40.02742725,-89.80246001,2021-02-14,1019,IL,7
17131.0,Mercer,Illinois,41.20596782,-90.74290052,2021-02-14,1255,IL,31
17133.0,Monroe,Illinois,38.27594376,-90.17761038,2021-02-14,3978,IL,80
17135.0,Montgomery,Illinois,39.23198845,-89.47809254,2021-02-14,3399,IL,67
17137.0,Morgan,Illinois,39.71654544,-90.20255104,2021-02-14,3510,IL,75
17139.0,Moultrie,Illinois,39.64187451,-88.62099969,2021-02-14,1470,IL,22
17141.0,Ogle,Illinois,42.04165196,-89.32184679,2021-02-14,4905,IL,71
80017.0,Out of IL,Illinois,0.0,0.0,2021-02-14,5,IL,0
17143.0,Peoria,Illinois,40.78702156,-89.76078901,2021-02-14,16524,IL,255
17145.0,Perry,Illinois,38.08510853,-89.36856219,2021-02-14,2989,IL,57
17147.0,Piatt,Illinois,40.01360584,-88.59319339,2021-02-14,1287,IL,13
17149.0,Pike,Illinois,39.62265059,-90.8877017,2021-02-14,1664,IL,48
17151.0,Pope,Illinois,37.41391284,-88.56152109,2021-02-14,279,IL,3
17153.0,Pulaski,Illinois,37.22631423,-89.13085001,2021-02-14,663,IL,5
17155.0,Putnam,Illinois,41.2013541,-89.2869272,2021-02-14,398,IL,3
17157.0,Randolph,Illinois,38.05095369,-89.82512254,2021-02-14,3934,IL,76
17159.0,Richland,Illinois,38.71240969,-88.08475366,2021-02-14,1627,IL,38
17161.0,Rock Island,Illinois,41.46613806,-90.57042164,2021-02-14,12818,IL,280
17165.0,Saline,Illinois,37.75332999,-88.54119706,2021-02-14,2245,IL,44
17167.0,Sangamon,Illinois,39.75836914,-89.65872023,2021-02-14,15811,IL,214
17169.0,Schuyler,Illinois,40.1571798,-90.61114163,2021-02-14,666,IL,5
17171.0,Scott,Illinois,39.6429169,-90.47814431,2021-02-14,444,IL,1
17173.0,Shelby,Illinois,39.39133527,-88.80611122,2021-02-14,2093,IL,33
17163.0,St. Clair,Illinois,38.46996033,-89.93063427,2021-02-14,24772,IL,449
17175.0,Stark,Illinois,41.09309773,-89.79745866,2021-02-14,527,IL,22
17177.0,Stephenson,Illinois,42.35129217,-89.662598,2021-02-14,3973,IL,71
17179.0,Tazewell,Illinois,40.50716185,-89.51404662,2021-02-14,13152,IL,235
90017.0,Unassigned,Illinois,0.0,0.0,2021-02-14,104,IL,2160
17181.0,Union,Illinois,37.47119609,-89.25548938,2021-02-14,2168,IL,31
17183.0,Vermilion,Illinois,40.18417171,-87.73384359,2021-02-14,8367,IL,113
17185.0,Wabash,Illinois,38.44272901,-87.84922065,2021-02-14,1289,IL,12
17187.0,Warren,Illinois,40.84925021,-90.6147432,2021-02-14,1655,IL,43
17189.0,Washington,Illinois,38.35309213,-89.40982703,2021-02-14,1562,IL,23
17191.0,Wayne,Illinois,38.42955355,-88.42586459,2021-02-14,1647,IL,45
17193.0,White,Illinois,38.08706198,-88.17657461,2021-02-14,1578,IL,23
17195.0,Whiteside,Illinois,41.75509713,-89.91556058,2021-02-14,5791,IL,143
17197.0,Will,Illinois,41.44619267,-87.97862712,2021-02-14,63393,IL,870
17199.0,Williamson,Illinois,37.73033511,-88.92994027,2021-02-14,6693,IL,116
17201.0,Winnebago,Illinois,42.33641854,-89.16085327,2021-02-14,27940,IL,425
17203.0,Woodford,Illinois,40.78579374,-89.20973757,2021-02-14,3565,IL,60
18001.0,Adams,Indiana,40.7457653,-84.93671406,2021-02-14,3172,IN,48
18003.0,Allen,Indiana,41.09194313,-85.06800636,2021-02-14,35013,IN,623
18005.0,Bartholomew,Indiana,39.20744865,-85.89558181,2021-02-14,7187,IN,144
18007.0,Benton,Indiana,40.60626947,-87.31093999,2021-02-14,904,IN,12
18009.0,Blackford,Indiana,40.47388153,-85.32499702,2021-02-14,1194,IN,27
18011.0,Boone,Indiana,40.0509304,-86.46841646,2021-02-14,5960,IN,87
18013.0,Brown,Indiana,39.19605589,-86.22868909,2021-02-14,935,IN,39
18015.0,Carroll,Indiana,40.580783200000006,-86.56198812,2021-02-14,1736,IN,18
18017.0,Cass,Indiana,40.76135835,-86.34830753,2021-02-14,5233,IN,94
18019.0,Clark,Indiana,38.48015445,-85.70510334,2021-02-14,11654,IN,176
18021.0,Clay,Indiana,39.39561833,-87.11723506,2021-02-14,2362,IN,42
18023.0,Clinton,Indiana,40.30319754,-86.47277257,2021-02-14,3890,IN,52
18025.0,Crawford,Indiana,38.28814402,-86.44518825,2021-02-14,892,IN,13
18027.0,Daviess,Indiana,38.70186039,-87.07185406,2021-02-14,2829,IN,91
18033.0,DeKalb,Indiana,41.39804622,-84.99906934,2021-02-14,3755,IN,77
18029.0,Dearborn,Indiana,39.14647946,-84.97333539,2021-02-14,5291,IN,62
18031.0,Decatur,Indiana,39.30712658,-85.50087166,2021-02-14,2676,IN,88
18035.0,Delaware,Indiana,40.22787247,-85.39732772,2021-02-14,9711,IN,175
18037.0,Dubois,Indiana,38.36597551,-86.87924170000002,2021-02-14,5831,IN,105
18039.0,Elkhart,Indiana,41.59761169,-85.85875695,2021-02-14,25058,IN,403
18041.0,Fayette,Indiana,39.63684962,-85.17797541,2021-02-14,2674,IN,54
18043.0,Floyd,Indiana,38.32117957,-85.90385377,2021-02-14,7037,IN,159
18045.0,Fountain,Indiana,40.12361933,-87.24217689,2021-02-14,1975,IN,38
18047.0,Franklin,Indiana,39.4142482,-85.06062647,2021-02-14,1574,IN,35
18049.0,Fulton,Indiana,41.0469907,-86.26252745,2021-02-14,1751,IN,38
18051.0,Gibson,Indiana,38.30393723,-87.58054938,2021-02-14,3971,IN,81
18053.0,Grant,Indiana,40.51587228,-85.65468702,2021-02-14,6346,IN,154
18055.0,Greene,Indiana,39.03630547,-86.96223202,2021-02-14,2575,IN,78
18057.0,Hamilton,Indiana,40.07306535,-86.05244729,2021-02-14,31321,IN,372
18059.0,Hancock,Indiana,39.82304555,-85.77566351,2021-02-14,7308,IN,126
18061.0,Harrison,Indiana,38.19467379,-86.10948271,2021-02-14,3882,IN,60
18063.0,Hendricks,Indiana,39.76719009,-86.51037283,2021-02-14,15510,IN,289
18065.0,Henry,Indiana,39.93029017,-85.39625719,2021-02-14,5354,IN,87
18067.0,Howard,Indiana,40.48527731,-86.11351892,2021-02-14,8951,IN,182
18069.0,Huntington,Indiana,40.82907273,-85.48822092,2021-02-14,3322,IN,77
18071.0,Jackson,Indiana,38.90915820000001,-86.03851889,2021-02-14,4582,IN,60
18073.0,Jasper,Indiana,41.02078733,-87.11553319,2021-02-14,3093,IN,41
18075.0,Jay,Indiana,40.43781032,-85.00576229,2021-02-14,1765,IN,28
18077.0,Jefferson,Indiana,38.78576239,-85.43633383,2021-02-14,2887,IN,66
18079.0,Jennings,Indiana,38.99588883,-85.62710784,2021-02-14,2114,IN,43
18081.0,Johnson,Indiana,39.48994426,-86.10149107,2021-02-14,16082,IN,342
18083.0,Knox,Indiana,38.68861576,-87.4194665,2021-02-14,3535,IN,82
18085.0,Kosciusko,Indiana,41.24521668,-85.86312322,2021-02-14,8432,IN,105
18087.0,LaGrange,Indiana,41.64232188,-85.42674232,2021-02-14,2386,IN,70
18091.0,LaPorte,Indiana,41.54366008,-86.74072188,2021-02-14,9584,IN,193
18089.0,Lake,Indiana,41.41874274,-87.38277575,2021-02-14,47615,IN,844
18093.0,Lawrence,Indiana,38.84112637,-86.48361629,2021-02-14,4116,IN,111
18095.0,Madison,Indiana,40.16143691,-85.71964711,2021-02-14,11584,IN,304
18097.0,Marion,Indiana,39.78163624,-86.13826325,2021-02-14,89176,IN,1606
18099.0,Marshall,Indiana,41.32467367,-86.26185087,2021-02-14,5349,IN,103
18101.0,Martin,Indiana,38.7099921,-86.80373186,2021-02-14,797,IN,15
18103.0,Miami,Indiana,40.76940965,-86.04525048,2021-02-14,3501,IN,60
18105.0,Monroe,Indiana,39.16130004,-86.52414358,2021-02-14,10104,IN,155
18107.0,Montgomery,Indiana,40.04034823,-86.89335024,2021-02-14,3747,IN,82
18109.0,Morgan,Indiana,39.47899078,-86.44573375,2021-02-14,5927,IN,124
18111.0,Newton,Indiana,40.95610449,-87.39635768,2021-02-14,964,IN,31
18113.0,Noble,Indiana,41.39672484,-85.41966713,2021-02-14,4994,IN,75
18115.0,Ohio,Indiana,38.955305,-84.96515993,2021-02-14,517,IN,11
18117.0,Orange,Indiana,38.54118920000001,-86.49523093,2021-02-14,1701,IN,49
80018.0,Out of IN,Indiana,0.0,0.0,2021-02-14,0,IN,0
18119.0,Owen,Indiana,39.31145587,-86.83900724,2021-02-14,1810,IN,52
18121.0,Parke,Indiana,39.77202286,-87.20375833,2021-02-14,1370,IN,15
18123.0,Perry,Indiana,38.07809328,-86.63741946,2021-02-14,1702,IN,35
18125.0,Pike,Indiana,38.40112197,-87.23574907,2021-02-14,1261,IN,30
18127.0,Porter,Indiana,41.45986947,-87.06848888,2021-02-14,15638,IN,258
18129.0,Posey,Indiana,38.02097333,-87.86480429,2021-02-14,2561,IN,31
18131.0,Pulaski,Indiana,41.04166107,-86.69890683,2021-02-14,1040,IN,40
18133.0,Putnam,Indiana,39.66437981,-86.84517605,2021-02-14,3207,IN,58
18135.0,Randolph,Indiana,40.15734772,-85.01139319,2021-02-14,2238,IN,71
18137.0,Ripley,Indiana,39.10235626,-85.26212744,2021-02-14,3213,IN,58
18139.0,Rush,Indiana,39.62002287,-85.4655599,2021-02-14,1622,IN,21
18143.0,Scott,Indiana,38.68672078,-85.74627859,2021-02-14,2428,IN,45
18145.0,Shelby,Indiana,39.52305623,-85.79158570000001,2021-02-14,4528,IN,88
18147.0,Spencer,Indiana,38.01519732,-87.0079644,2021-02-14,2125,IN,28
18141.0,St. Joseph,Indiana,41.61756781,-86.29040834,2021-02-14,28925,IN,499
18149.0,Starke,Indiana,41.27890281,-86.64686895,2021-02-14,1839,IN,50
18151.0,Steuben,Indiana,41.64423868,-85.00101094,2021-02-14,3308,IN,55
18153.0,Sullivan,Indiana,39.08952258,-87.41414469,2021-02-14,2008,IN,38
18155.0,Switzerland,Indiana,38.82767338,-85.03022429,2021-02-14,744,IN,7
18157.0,Tippecanoe,Indiana,40.38872739,-86.89413959,2021-02-14,19371,IN,190
18159.0,Tipton,Indiana,40.31123252,-86.05234925,2021-02-14,1442,IN,40
90018.0,Unassigned,Indiana,0.0,0.0,2021-02-14,0,IN,427
18161.0,Union,Indiana,39.62550777,-84.92497066,2021-02-14,660,IN,10
18163.0,Vanderburgh,Indiana,38.02658833,-87.58763124,2021-02-14,20884,IN,368
18165.0,Vermillion,Indiana,39.8523352,-87.46160542,2021-02-14,1569,IN,40
18167.0,Vigo,Indiana,39.42944561,-87.39169027,2021-02-14,11392,IN,223
18169.0,Wabash,Indiana,40.84704239,-85.79328272,2021-02-14,3249,IN,73
18171.0,Warren,Indiana,40.34728141,-87.35602659,2021-02-14,732,IN,12
18173.0,Warrick,Indiana,38.08922676,-87.2716085,2021-02-14,7265,IN,140
18175.0,Washington,Indiana,38.60219804,-86.1049363,2021-02-14,2034,IN,25
18177.0,Wayne,Indiana,39.8633444,-85.01044989,2021-02-14,6522,IN,183
18179.0,Wells,Indiana,40.72934187,-85.22132966,2021-02-14,2491,IN,71
18181.0,White,Indiana,40.74911165,-86.86492015,2021-02-14,2914,IN,51
18183.0,Whitley,Indiana,41.13863784,-85.50791236,2021-02-14,3397,IN,35
19001.0,Adair,Iowa,41.33075609,-94.47105874,2021-02-14,770,IA,25
19003.0,Adams,Iowa,41.02903567,-94.69932645,2021-02-14,317,IA,3
19005.0,Allamakee,Iowa,43.28383218,-91.37860922,2021-02-14,1375,IA,41
19007.0,Appanoose,Iowa,40.74324454,-92.86865906,2021-02-14,1192,IA,46
19009.0,Audubon,Iowa,41.6844628,-94.90581859,2021-02-14,454,IA,9
19011.0,Benton,Iowa,42.08011739,-92.06463573,2021-02-14,2280,IA,53
19013.0,Black Hawk,Iowa,42.4704581,-92.30524729,2021-02-14,14698,IA,275
19015.0,Boone,Iowa,42.03657094,-93.9313999,2021-02-14,2364,IA,27
19017.0,Bremer,Iowa,42.77461496,-92.31795937,2021-02-14,2610,IA,53
19019.0,Buchanan,Iowa,42.4709188,-91.83510825,2021-02-14,1720,IA,26
19021.0,Buena Vista,Iowa,42.73545875,-95.15100162,2021-02-14,4043,IA,36
19023.0,Butler,Iowa,42.73172833,-92.79015971,2021-02-14,1562,IA,30
19025.0,Calhoun,Iowa,42.38521079,-94.64046046,2021-02-14,1266,IA,9
19027.0,Carroll,Iowa,42.03617207,-94.86032705,2021-02-14,2626,IA,47
19029.0,Cass,Iowa,41.33149454,-94.92792482,2021-02-14,1231,IA,47
19031.0,Cedar,Iowa,41.77233777,-91.13246684,2021-02-14,1630,IA,20
19033.0,Cerro Gordo,Iowa,43.08177563,-93.2612239,2021-02-14,4922,IA,79
19035.0,Cherokee,Iowa,42.73538914,-95.62389402,2021-02-14,1423,IA,35
19037.0,Chickasaw,Iowa,43.06001295,-92.31773347,2021-02-14,1173,IA,13
19039.0,Clarke,Iowa,41.02868181,-93.78499767,2021-02-14,905,IA,20
19041.0,Clay,Iowa,43.08247182,-95.15096481,2021-02-14,1809,IA,25
19043.0,Clayton,Iowa,42.84443388,-91.34133693,2021-02-14,1577,IA,53
19045.0,Clinton,Iowa,41.89981633,-90.53275096,2021-02-14,4859,IA,80
19047.0,Crawford,Iowa,42.03718237,-95.3819718,2021-02-14,2451,IA,35
19049.0,Dallas,Iowa,41.68560356,-94.04127625,2021-02-14,9786,IA,85
19051.0,Davis,Iowa,40.74773536,-92.41005468,2021-02-14,742,IA,23
19053.0,Decatur,Iowa,40.73742757,-93.78645949,2021-02-14,535,IA,8
19055.0,Delaware,Iowa,42.47104597,-91.3664492,2021-02-14,1837,IA,38
19057.0,Des Moines,Iowa,40.92012606,-91.18326592,2021-02-14,4158,IA,55
19059.0,Dickinson,Iowa,43.37787725,-95.1510206,2021-02-14,1968,IA,37
19061.0,Dubuque,Iowa,42.46815349,-90.88181925,2021-02-14,12126,IA,187
19063.0,Emmet,Iowa,43.37782951,-94.67858943,2021-02-14,1133,IA,39
19065.0,Fayette,Iowa,42.86271799,-91.8441231,2021-02-14,1747,IA,31
19067.0,Floyd,Iowa,43.06000529999999,-92.78940097,2021-02-14,1461,IA,38
19069.0,Franklin,Iowa,42.73270384,-93.26256925,2021-02-14,1081,IA,19
19071.0,Fremont,Iowa,40.74542720000001,-95.60129045,2021-02-14,540,IA,9
19073.0,Greene,Iowa,42.03614551,-94.39658081,2021-02-14,717,IA,10
19075.0,Grundy,Iowa,42.40183723,-92.78829551,2021-02-14,1286,IA,30
19077.0,Guthrie,Iowa,41.68378965,-94.50111014,2021-02-14,1071,IA,28
19079.0,Hamilton,Iowa,42.38382428,-93.70197703,2021-02-14,1704,IA,38
19081.0,Hancock,Iowa,43.08178477,-93.73454884,2021-02-14,1358,IA,27
19083.0,Hardin,Iowa,42.38353877,-93.23654611,2021-02-14,1650,IA,34
19085.0,Harrison,Iowa,41.68330137,-95.81558439,2021-02-14,1646,IA,68
19087.0,Henry,Iowa,40.98767962,-91.54436349,2021-02-14,2763,IA,35
19089.0,Howard,Iowa,43.35671042,-92.31702714,2021-02-14,965,IA,20
19091.0,Humboldt,Iowa,42.7764426,-94.20722537,2021-02-14,1109,IA,22
19093.0,Ida,Iowa,42.38696136,-95.51355387,2021-02-14,799,IA,32
19095.0,Iowa,Iowa,41.68630265,-92.0643373,2021-02-14,1353,IA,23
19097.0,Jackson,Iowa,42.17178824,-90.57354837,2021-02-14,2059,IA,37
19099.0,Jasper,Iowa,41.68576082,-93.05567785,2021-02-14,3570,IA,65
19101.0,Jefferson,Iowa,41.03192394,-91.94849466,2021-02-14,1263,IA,31
19103.0,Johnson,Iowa,41.67169354,-91.58754744,2021-02-14,12830,IA,68
19105.0,Jones,Iowa,42.12118609,-91.13139641,2021-02-14,2826,IA,54
19107.0,Keokuk,Iowa,41.33649833,-92.1785067,2021-02-14,899,IA,29
19109.0,Kossuth,Iowa,43.20405458,-94.20691791,2021-02-14,1925,IA,52
19111.0,Lee,Iowa,40.64181461,-91.48183025,2021-02-14,3458,IA,47
19113.0,Linn,Iowa,42.07923082,-91.59809485,2021-02-14,19099,IA,305
19115.0,Louisa,Iowa,41.21842119,-91.26102611,2021-02-14,1195,IA,41
19117.0,Lucas,Iowa,41.02958964,-93.32780803,2021-02-14,689,IA,18
19119.0,Lyon,Iowa,43.38107862,-96.20926845,2021-02-14,1423,IA,40
19121.0,Madison,Iowa,41.33081904,-94.01554631,2021-02-14,1362,IA,16
19123.0,Mahaska,Iowa,41.33521503,-92.64083907,2021-02-14,2110,IA,44
19125.0,Marion,Iowa,41.33445101,-93.09934783,2021-02-14,3309,IA,66
19127.0,Marshall,Iowa,42.03586837,-92.9990819,2021-02-14,4527,IA,69
19129.0,Mills,Iowa,41.03299766,-95.61920963,2021-02-14,1457,IA,20
19131.0,Mitchell,Iowa,43.35638371,-92.78887719,2021-02-14,1185,IA,40
19133.0,Monona,Iowa,42.05220391,-95.95743843,2021-02-14,752,IA,23
19135.0,Monroe,Iowa,41.02988815,-92.8690667,2021-02-14,870,IA,27
19137.0,Montgomery,Iowa,41.03018714,-95.15642896,2021-02-14,954,IA,36
19139.0,Muscatine,Iowa,41.48370744,-91.1121697,2021-02-14,4097,IA,87
19141.0,O'Brien,Iowa,43.08310673,-95.62474482,2021-02-14,1766,IA,58
19143.0,Osceola,Iowa,43.37824276,-95.62422844,2021-02-14,660,IA,13
80019.0,Out of IA,Iowa,0.0,0.0,2021-02-14,0,IA,0
19145.0,Page,Iowa,40.7393172,-95.1497813,2021-02-14,1624,IA,17
19147.0,Palo Alto,Iowa,43.08193849,-94.67824621,2021-02-14,978,IA,19
19149.0,Plymouth,Iowa,42.737633,-96.21366621,2021-02-14,3612,IA,75
19151.0,Pocahontas,Iowa,42.73420133,-94.67862564,2021-02-14,804,IA,18
19153.0,Polk,Iowa,41.68679484,-93.57767461,2021-02-14,49982,IA,524
19155.0,Pottawattamie,Iowa,41.33640314,-95.53907776,2021-02-14,9597,IA,139
19157.0,Poweshiek,Iowa,41.68625425,-92.53155731,2021-02-14,1450,IA,29
19159.0,Ringgold,Iowa,40.73518949,-94.24368535,2021-02-14,490,IA,16
19161.0,Sac,Iowa,42.38624071,-95.10547892,2021-02-14,1154,IA,17
19163.0,Scott,Iowa,41.63935978,-90.61959493,2021-02-14,16737,IA,196
19165.0,Shelby,Iowa,41.6850066,-95.31015553,2021-02-14,1124,IA,32
19167.0,Sioux,Iowa,43.08221074,-96.1767568,2021-02-14,4694,IA,67
19169.0,Story,Iowa,42.03621213,-93.46499005,2021-02-14,9273,IA,43
19171.0,Tama,Iowa,42.07991767,-92.53266945,2021-02-14,1976,IA,63
19173.0,Taylor,Iowa,40.73710579,-94.69778563,2021-02-14,627,IA,11
90019.0,Unassigned,Iowa,0.0,0.0,2021-02-14,1139,IA,0
19175.0,Union,Iowa,41.0277278,-94.24234847,2021-02-14,1168,IA,31
19177.0,Van Buren,Iowa,40.75326764,-91.95017958,2021-02-14,529,IA,17
19179.0,Wapello,Iowa,41.03064984,-92.40954728,2021-02-14,3806,IA,105
19181.0,Warren,Iowa,41.33559454,-93.56007641,2021-02-14,4947,IA,67
19183.0,Washington,Iowa,41.33577126,-91.71725711,2021-02-14,2340,IA,41
19185.0,Wayne,Iowa,40.73969028,-93.32752197,2021-02-14,438,IA,21
19187.0,Webster,Iowa,42.42853483,-94.17987389,2021-02-14,4844,IA,83
19189.0,Winnebago,Iowa,43.37751174,-93.73407298,2021-02-14,1272,IA,30
19191.0,Winneshiek,Iowa,43.29094334,-91.84422722,2021-02-14,1757,IA,26
19193.0,Woodbury,Iowa,42.38979414,-96.0459439,2021-02-14,13467,IA,205
19195.0,Worth,Iowa,43.37750768,-93.26087602,2021-02-14,648,IA,4
19197.0,Wright,Iowa,42.73305373,-93.73515113,2021-02-14,1704,IA,31
20001.0,Allen,Kansas,37.88582951,-95.30030847,2021-02-14,1047,KS,15
20003.0,Anderson,Kansas,38.21413251,-95.29272815,2021-02-14,794,KS,17
20005.0,Atchison,Kansas,39.53185661,-95.30870026,2021-02-14,1488,KS,12
20007.0,Barber,Kansas,37.2288586,-98.68460053,2021-02-14,365,KS,7
20009.0,Barton,Kansas,38.47889676,-98.75636726,2021-02-14,2542,KS,46
20011.0,Bourbon,Kansas,37.85508555,-94.84865997,2021-02-14,1253,KS,22
20013.0,Brown,Kansas,39.82652589,-95.56421698,2021-02-14,1189,KS,36
20015.0,Butler,Kansas,37.78134351,-96.83878537,2021-02-14,7038,KS,73
20017.0,Chase,Kansas,38.30292938,-96.59563862,2021-02-14,236,KS,3
20019.0,Chautauqua,Kansas,37.14994405,-96.2454192,2021-02-14,250,KS,6
20021.0,Cherokee,Kansas,37.16928494,-94.8462897,2021-02-14,2303,KS,41
20023.0,Cheyenne,Kansas,39.78580976,-101.7318201,2021-02-14,342,KS,12
20025.0,Clark,Kansas,37.23577007,-99.81883015,2021-02-14,233,KS,7
20027.0,Clay,Kansas,39.34948772,-97.16518128,2021-02-14,767,KS,26
20029.0,Cloud,Kansas,39.48028352,-97.64925343,2021-02-14,959,KS,25
20031.0,Coffey,Kansas,38.2365018,-95.73379515,2021-02-14,687,KS,14
20033.0,Comanche,Kansas,37.19114520000001,-99.27113247,2021-02-14,153,KS,6
20035.0,Cowley,Kansas,37.23781842,-96.83776647,2021-02-14,3713,KS,86
20037.0,Crawford,Kansas,37.50675523,-94.85245778,2021-02-14,4413,KS,64
20039.0,Decatur,Kansas,39.78468441,-100.4594081,2021-02-14,258,KS,11
20041.0,Dickinson,Kansas,38.86600962,-97.15532383,2021-02-14,1669,KS,36
20043.0,Doniphan,Kansas,39.79067154,-95.14056866,2021-02-14,923,KS,19
20045.0,Douglas,Kansas,38.88503636,-95.2925121,2021-02-14,8424,KS,71
20047.0,Edwards,Kansas,37.88735543,-99.31263309,2021-02-14,244,KS,12
20049.0,Elk,Kansas,37.45338105,-96.24369667,2021-02-14,167,KS,3
20051.0,Ellis,Kansas,38.91458712,-99.31751551,2021-02-14,3590,KS,68
20053.0,Ellsworth,Kansas,38.69677695,-98.20462799,2021-02-14,1199,KS,20
20055.0,Finney,Kansas,38.04340344,-100.7381938,2021-02-14,5946,KS,70
20057.0,Ford,Kansas,37.69200114,-99.88825298,2021-02-14,5516,KS,57
20059.0,Franklin,Kansas,38.56443815,-95.28644341,2021-02-14,2378,KS,35
20061.0,Geary,Kansas,38.99871131,-96.7577178,2021-02-14,2887,KS,28
20063.0,Gove,Kansas,38.91588178,-100.4829321,2021-02-14,374,KS,19
20065.0,Graham,Kansas,39.34987223,-99.88332493,2021-02-14,246,KS,6
20067.0,Grant,Kansas,37.56227336,-101.3079758,2021-02-14,921,KS,16
20069.0,Gray,Kansas,37.73836671,-100.4369088,2021-02-14,548,KS,13
20071.0,Greeley,Kansas,38.4808095,-101.8061079,2021-02-14,101,KS,1
20073.0,Greenwood,Kansas,37.8774388,-96.23250453,2021-02-14,540,KS,12
20075.0,Hamilton,Kansas,37.99978709,-101.7921066,2021-02-14,199,KS,1
20077.0,Harper,Kansas,37.19175361,-98.07578384,2021-02-14,590,KS,20
20079.0,Harvey,Kansas,38.04293782,-97.42747573,2021-02-14,3323,KS,54
20081.0,Haskell,Kansas,37.5620394,-100.8710738,2021-02-14,406,KS,6
20083.0,Hodgeman,Kansas,38.08780079,-99.89829881,2021-02-14,192,KS,7
20085.0,Jackson,Kansas,39.41673394,-95.79356799,2021-02-14,1312,KS,11
20087.0,Jefferson,Kansas,39.2347941,-95.38289232,2021-02-14,1576,KS,30
20089.0,Jewell,Kansas,39.78470589,-98.21820662,2021-02-14,192,KS,4
20091.0,Johnson,Kansas,38.88548175,-94.82250877,2021-02-14,51871,KS,702
20093.0,Kearny,Kansas,38.00017981,-101.321681,2021-02-14,552,KS,11
20095.0,Kingman,Kansas,37.55909527,-98.13638678,2021-02-14,713,KS,13
20097.0,Kiowa,Kansas,37.55848695,-99.2856537,2021-02-14,236,KS,5
20099.0,Labette,Kansas,37.19113093,-95.29849679,2021-02-14,2530,KS,10
20101.0,Lane,Kansas,38.48119447,-100.4660754,2021-02-14,124,KS,7
20103.0,Leavenworth,Kansas,39.20183497,-95.03620809,2021-02-14,6555,KS,71
20105.0,Lincoln,Kansas,39.04549684,-98.20756994,2021-02-14,252,KS,4
20107.0,Linn,Kansas,38.21267844,-94.84254089,2021-02-14,735,KS,7
20109.0,Logan,Kansas,38.91735806,-101.148475,2021-02-14,290,KS,6
20111.0,Lyon,Kansas,38.45576156,-96.15275715,2021-02-14,3980,KS,76
20115.0,Marion,Kansas,38.35855394,-97.0985251,2021-02-14,996,KS,21
20117.0,Marshall,Kansas,39.78359669,-96.52278974,2021-02-14,1045,KS,22
20113.0,McPherson,Kansas,38.39184858,-97.64769869,2021-02-14,3031,KS,75
20119.0,Meade,Kansas,37.23859987,-100.364831,2021-02-14,483,KS,8
20121.0,Miami,Kansas,38.56383358,-94.83832189,2021-02-14,2551,KS,33
20123.0,Mitchell,Kansas,39.39331582,-98.20906732,2021-02-14,554,KS,16
20125.0,Montgomery,Kansas,37.19236568,-95.74329258,2021-02-14,3176,KS,58
20127.0,Morris,Kansas,38.68827511,-96.65128437,2021-02-14,539,KS,19
20129.0,Morton,Kansas,37.19141121,-101.79925190000002,2021-02-14,237,KS,8
20131.0,Nemaha,Kansas,39.78345387,-96.01392079,2021-02-14,1451,KS,52
20133.0,Neosho,Kansas,37.55862897,-95.30670046,2021-02-14,1682,KS,18
20135.0,Ness,Kansas,38.47974157,-99.91547333,2021-02-14,361,KS,15
20137.0,Norton,Kansas,39.78443827,-99.90286639,2021-02-14,1196,KS,27
20139.0,Osage,Kansas,38.65235984,-95.72707998,2021-02-14,1145,KS,16
20141.0,Osborne,Kansas,39.3503437,-98.76753828,2021-02-14,280,KS,9
20143.0,Ottawa,Kansas,39.13237408,-97.65020313,2021-02-14,545,KS,12
80020.0,Out of KS,Kansas,0.0,0.0,2021-02-14,0,KS,0
20145.0,Pawnee,Kansas,38.18108732,-99.23692334,2021-02-14,1129,KS,13
20147.0,Phillips,Kansas,39.78465501,-99.34668865,2021-02-14,676,KS,22
20149.0,Pottawatomie,Kansas,39.37925655,-96.34564657,2021-02-14,1637,KS,24
20151.0,Pratt,Kansas,37.64780729,-98.73922153,2021-02-14,793,KS,24
20153.0,Rawlins,Kansas,39.78525843,-101.0761617,2021-02-14,286,KS,7
20155.0,Reno,Kansas,37.95230263,-98.08607292,2021-02-14,8191,KS,133
20157.0,Republic,Kansas,39.82799632,-97.65036709,2021-02-14,656,KS,12
20159.0,Rice,Kansas,38.34616184,-98.19992118,2021-02-14,1030,KS,10
20161.0,Riley,Kansas,39.28935726,-96.73420026,2021-02-14,6115,KS,32
20163.0,Rooks,Kansas,39.35022773,-99.32484567,2021-02-14,616,KS,12
20165.0,Rush,Kansas,38.52275276,-99.30863983,2021-02-14,424,KS,11
20167.0,Russell,Kansas,38.91462787,-98.76254297,2021-02-14,820,KS,26
20169.0,Saline,Kansas,38.78369175,-97.65185177,2021-02-14,5851,KS,121
20171.0,Scott,Kansas,38.48222076,-100.9066539,2021-02-14,565,KS,20
20173.0,Sedgwick,Kansas,37.6842718,-97.4608198,2021-02-14,52423,KS,630
20175.0,Seward,Kansas,37.19324632,-100.8507201,2021-02-14,3749,KS,32
20177.0,Shawnee,Kansas,39.04100763,-95.7557264,2021-02-14,15824,KS,314
20179.0,Sheridan,Kansas,39.35018161,-100.4418259,2021-02-14,424,KS,12
20181.0,Sherman,Kansas,39.35147699,-101.7197624,2021-02-14,594,KS,11
20183.0,Smith,Kansas,39.78516566,-98.78566062,2021-02-14,260,KS,2
20185.0,Stafford,Kansas,38.03100851,-98.71762001,2021-02-14,329,KS,9
20187.0,Stanton,Kansas,37.56304714,-101.7843534,2021-02-14,180,KS,6
20189.0,Stevens,Kansas,37.1923008,-101.3118967,2021-02-14,542,KS,9
20191.0,Sumner,Kansas,37.23682549,-97.47721621,2021-02-14,2045,KS,43
20193.0,Thomas,Kansas,39.35107575,-101.0553705,2021-02-14,1040,KS,17
20195.0,Trego,Kansas,38.91467218,-99.87284448,2021-02-14,391,KS,6
90020.0,Unassigned,Kansas,0.0,0.0,2021-02-14,0,KS,0
20197.0,Wabaunsee,Kansas,38.95471985,-96.20350509,2021-02-14,627,KS,13
20199.0,Wallace,Kansas,38.91686134,-101.7638876,2021-02-14,171,KS,4
20201.0,Washington,Kansas,39.78420784,-97.0875323,2021-02-14,520,KS,10
20203.0,Wichita,Kansas,38.48178252,-101.3471509,2021-02-14,213,KS,5
20205.0,Wilson,Kansas,37.55937174,-95.74323255,2021-02-14,909,KS,14
20207.0,Woodson,Kansas,37.8865336,-95.74006277,2021-02-14,193,KS,4
20209.0,Wyandotte,Kansas,39.11727348,-94.76378225,2021-02-14,18649,KS,252
21001.0,Adair,Kentucky,37.10459774,-85.28129668,2021-02-14,1502,KY,49
21003.0,Allen,Kentucky,36.75197631,-86.19457544,2021-02-14,1766,KY,22
21005.0,Anderson,Kentucky,38.00671029,-84.99171713,2021-02-14,1575,KY,15
21007.0,Ballard,Kentucky,37.05842757,-88.99427697,2021-02-14,330,KY,5
21009.0,Barren,Kentucky,36.96469836,-85.93338945,2021-02-14,3844,KY,64
21011.0,Bath,Kentucky,38.14735938,-83.74588932,2021-02-14,728,KY,15
21013.0,Bell,Kentucky,36.73355174,-83.67766671,2021-02-14,2587,KY,33
21015.0,Boone,Kentucky,38.97065142,-84.72615357,2021-02-14,11890,KY,70
21017.0,Bourbon,Kentucky,38.2054607,-84.21827874,2021-02-14,1499,KY,7
21019.0,Boyd,Kentucky,38.36176608,-82.68652187,2021-02-14,4520,KY,41
21021.0,Boyle,Kentucky,37.62680923,-84.8633779,2021-02-14,3089,KY,31
21023.0,Bracken,Kentucky,38.69158994,-84.08532444,2021-02-14,485,KY,4
21025.0,Breathitt,Kentucky,37.52333168,-83.31959161,2021-02-14,895,KY,6
21027.0,Breckinridge,Kentucky,37.77377239,-86.42885017,2021-02-14,1065,KY,7
21029.0,Bullitt,Kentucky,37.97162523,-85.68955617,2021-02-14,5901,KY,44
21031.0,Butler,Kentucky,37.20946153,-86.68748787,2021-02-14,1272,KY,23
21033.0,Caldwell,Kentucky,37.14749129,-87.86948214,2021-02-14,1269,KY,21
21035.0,Calloway,Kentucky,36.62093411,-88.2731593,2021-02-14,3328,KY,38
21037.0,Campbell,Kentucky,38.94384345,-84.37875208,2021-02-14,7401,KY,45
21039.0,Carlisle,Kentucky,36.85372876,-88.96692220000001,2021-02-14,420,KY,1
21041.0,Carroll,Kentucky,38.66599534,-85.12601074,2021-02-14,857,KY,10
21043.0,Carter,Kentucky,38.31690743,-83.05092385,2021-02-14,1908,KY,21
21045.0,Casey,Kentucky,37.32533118,-84.92726209,2021-02-14,1152,KY,32
21047.0,Christian,Kentucky,36.89267803,-87.49055367,2021-02-14,6041,KY,73
21049.0,Clark,Kentucky,37.9689263,-84.14615986,2021-02-14,2309,KY,18
21051.0,Clay,Kentucky,37.16451126,-83.712575,2021-02-14,2322,KY,26
21053.0,Clinton,Kentucky,36.72581156,-85.13377529,2021-02-14,1325,KY,25
21055.0,Crittenden,Kentucky,37.35839237,-88.08826090000002,2021-02-14,547,KY,17
21057.0,Cumberland,Kentucky,36.78926125,-85.39050034,2021-02-14,632,KY,7
21059.0,Daviess,Kentucky,37.73028906,-87.09019479999998,2021-02-14,9347,KY,151
21061.0,Edmonson,Kentucky,37.21218923,-86.23955613,2021-02-14,792,KY,17
21063.0,Elliott,Kentucky,38.11624059,-83.09771563,2021-02-14,926,KY,1
21065.0,Estill,Kentucky,37.69241417,-83.95956369,2021-02-14,930,KY,0
21067.0,Fayette,Kentucky,38.0368225,-84.45576892,2021-02-14,31465,KY,211
21069.0,Fleming,Kentucky,38.36758311,-83.69657514,2021-02-14,1062,KY,14
21071.0,Floyd,Kentucky,37.56213922,-82.74750924,2021-02-14,2927,KY,27
21073.0,Franklin,Kentucky,38.2379395,-84.87962551,2021-02-14,3489,KY,28
21075.0,Fulton,Kentucky,36.55238827,-89.20140068,2021-02-14,462,KY,6
21077.0,Gallatin,Kentucky,38.75398691,-84.8558382,2021-02-14,629,KY,19
21079.0,Garrard,Kentucky,37.6388668,-84.53289319,2021-02-14,1350,KY,8
21081.0,Grant,Kentucky,38.64962758,-84.62415957,2021-02-14,1910,KY,12
21083.0,Graves,Kentucky,36.72292505,-88.65143315,2021-02-14,3890,KY,69
21085.0,Grayson,Kentucky,37.46231118,-86.34248968,2021-02-14,1882,KY,45
21087.0,Green,Kentucky,37.26484328,-85.5540745,2021-02-14,1036,KY,13
21089.0,Greenup,Kentucky,38.54332505,-82.9215658,2021-02-14,3238,KY,23
21091.0,Hancock,Kentucky,37.83766422,-86.78280584,2021-02-14,787,KY,13
21093.0,Hardin,Kentucky,37.6976111,-85.96319251,2021-02-14,8493,KY,85
21095.0,Harlan,Kentucky,36.85699301,-83.21899516,2021-02-14,2326,KY,64
21097.0,Harrison,Kentucky,38.44188174,-84.32869741,2021-02-14,1448,KY,9
21099.0,Hart,Kentucky,37.29943898,-85.88461055,2021-02-14,1765,KY,33
21101.0,Henderson,Kentucky,37.79344553,-87.57392021,2021-02-14,4240,KY,55
21103.0,Henry,Kentucky,38.44942688,-85.11587507,2021-02-14,1157,KY,6
21105.0,Hickman,Kentucky,36.67948079999999,-88.97875928,2021-02-14,311,KY,7
21107.0,Hopkins,Kentucky,37.30939025,-87.54670406,2021-02-14,3818,KY,121
21109.0,Jackson,Kentucky,37.41866422,-83.99825483,2021-02-14,1173,KY,29
21111.0,Jefferson,Kentucky,38.18664655,-85.65931031,2021-02-14,70234,KY,760
21113.0,Jessamine,Kentucky,37.87119786,-84.58252003,2021-02-14,3949,KY,49
21115.0,Johnson,Kentucky,37.85106355,-82.8264322,2021-02-14,1673,KY,18
21117.0,Kenton,Kentucky,38.93950319,-84.53241199,2021-02-14,14183,KY,114
21119.0,Knott,Kentucky,37.35388197,-82.94981134,2021-02-14,971,KY,15
21121.0,Knox,Kentucky,36.89225732,-83.85403396,2021-02-14,2763,KY,11
21123.0,Larue,Kentucky,37.54567114,-85.70138352,2021-02-14,1143,KY,11
21125.0,Laurel,Kentucky,37.10975748,-84.11321779,2021-02-14,5554,KY,23
21127.0,Lawrence,Kentucky,38.07136018,-82.72882223,2021-02-14,1184,KY,17
21129.0,Lee,Kentucky,37.59645942,-83.71513901,2021-02-14,1171,KY,18
21131.0,Leslie,Kentucky,37.09246661,-83.37999606,2021-02-14,744,KY,2
21133.0,Letcher,Kentucky,37.12306748,-82.85346474,2021-02-14,1611,KY,18
21135.0,Lewis,Kentucky,38.53184419,-83.37735618,2021-02-14,1066,KY,30
21137.0,Lincoln,Kentucky,37.45475628,-84.6565327,2021-02-14,2033,KY,31
21139.0,Livingston,Kentucky,37.21137452,-88.34797529,2021-02-14,728,KY,16
21141.0,Logan,Kentucky,36.85949479,-86.877635,2021-02-14,2380,KY,50
21143.0,Lyon,Kentucky,37.02080035,-88.07886257,2021-02-14,455,KY,13
21151.0,Madison,Kentucky,37.71659336,-84.27220275,2021-02-14,8306,KY,77
21153.0,Magoffin,Kentucky,37.70820545,-83.0657714,2021-02-14,844,KY,1
21155.0,Marion,Kentucky,37.55218078,-85.26898542,2021-02-14,2076,KY,23
21157.0,Marshall,Kentucky,36.88007070000001,-88.32803576,2021-02-14,2440,KY,43
21159.0,Martin,Kentucky,37.79990579,-82.51247478,2021-02-14,901,KY,11
21161.0,Mason,Kentucky,38.59471935,-83.82151043,2021-02-14,1360,KY,26
21145.0,McCracken,Kentucky,37.05350953,-88.70445755,2021-02-14,5550,KY,63
21147.0,McCreary,Kentucky,36.73874143,-84.48102924,2021-02-14,1655,KY,18
21149.0,McLean,Kentucky,37.5301951,-87.26803443,2021-02-14,819,KY,25
21163.0,Meade,Kentucky,37.96163597,-86.21028219,2021-02-14,1781,KY,13
21165.0,Menifee,Kentucky,37.94090733,-83.59985712,2021-02-14,387,KY,11
21167.0,Mercer,Kentucky,37.81474237,-84.87488475,2021-02-14,2283,KY,18
21169.0,Metcalfe,Kentucky,36.99459295,-85.63123699,2021-02-14,911,KY,19
21171.0,Monroe,Kentucky,36.71225341,-85.71596443,2021-02-14,1234,KY,36
21173.0,Montgomery,Kentucky,38.03253032,-83.9145241,2021-02-14,2177,KY,23
21175.0,Morgan,Kentucky,37.92465657,-83.25558245,2021-02-14,1964,KY,1
21177.0,Muhlenberg,Kentucky,37.21425819,-87.14632053,2021-02-14,2657,KY,46
21179.0,Nelson,Kentucky,37.80335779,-85.4657193,2021-02-14,4436,KY,31
21181.0,Nicholas,Kentucky,38.33342292,-84.01889177,2021-02-14,433,KY,6
21183.0,Ohio,Kentucky,37.47751843,-86.85368087,2021-02-14,2221,KY,45
21185.0,Oldham,Kentucky,38.39791089,-85.448222,2021-02-14,6720,KY,69
80021.0,Out of KY,Kentucky,0.0,0.0,2021-02-14,0,KY,0
21187.0,Owen,Kentucky,38.51679143,-84.82404619,2021-02-14,605,KY,7
21189.0,Owsley,Kentucky,37.42823949,-83.68811419,2021-02-14,399,KY,10
21191.0,Pendleton,Kentucky,38.69607718,-84.35599463,2021-02-14,899,KY,1
21193.0,Perry,Kentucky,37.25023553,-83.22922731,2021-02-14,2166,KY,32
21195.0,Pike,Kentucky,37.47088263,-82.39487445,2021-02-14,4874,KY,51
21197.0,Powell,Kentucky,37.83218794,-83.82553961,2021-02-14,944,KY,0
21199.0,Pulaski,Kentucky,37.10466131,-84.57629079,2021-02-14,5553,KY,72
21201.0,Robertson,Kentucky,38.51923469,-84.05055616,2021-02-14,186,KY,12
21203.0,Rockcastle,Kentucky,37.36642393,-84.31176452,2021-02-14,1292,KY,13
21205.0,Rowan,Kentucky,38.19484205,-83.42088935,2021-02-14,1845,KY,9
21207.0,Russell,Kentucky,36.99308373,-85.06070117,2021-02-14,1573,KY,36
21209.0,Scott,Kentucky,38.29622293,-84.5816631,2021-02-14,3753,KY,26
21211.0,Shelby,Kentucky,38.21476019,-85.194223,2021-02-14,4144,KY,37
21213.0,Simpson,Kentucky,36.74058474,-86.58047435,2021-02-14,1611,KY,28
21215.0,Spencer,Kentucky,38.03223971,-85.32749335,2021-02-14,1422,KY,5
21217.0,Taylor,Kentucky,37.3677562,-85.3329931,2021-02-14,2532,KY,29
21219.0,Todd,Kentucky,36.8381152,-87.17878374,2021-02-14,986,KY,23
21221.0,Trigg,Kentucky,36.80767017,-87.87333656,2021-02-14,1075,KY,8
21223.0,Trimble,Kentucky,38.61056487,-85.33775972,2021-02-14,575,KY,3
90021.0,Unassigned,Kentucky,0.0,0.0,2021-02-14,8,KY,0
21225.0,Union,Kentucky,37.66166713,-87.94300009,2021-02-14,1242,KY,12
21227.0,Warren,Kentucky,36.99903045,-86.42672751,2021-02-14,14113,KY,127
21229.0,Washington,Kentucky,37.75599461,-85.17407732,2021-02-14,1279,KY,28
21231.0,Wayne,Kentucky,36.80310688,-84.8251971,2021-02-14,1930,KY,35
21233.0,Webster,Kentucky,37.52168356,-87.67989953,2021-02-14,1140,KY,17
21235.0,Whitley,Kentucky,36.75700531,-84.14541217,2021-02-14,4015,KY,16
21237.0,Wolfe,Kentucky,37.73941626,-83.49303612,2021-02-14,413,KY,4
21239.0,Woodford,Kentucky,38.04178222,-84.7417556,2021-02-14,1915,KY,4
22001.0,Acadia,Louisiana,30.2950649,-92.41419698,2021-02-14,5989,LA,178
22003.0,Allen,Louisiana,30.65385745,-92.82442028,2021-02-14,2920,LA,82
22005.0,Ascension,Louisiana,30.20406249,-90.91328409999998,2021-02-14,10750,LA,143
22007.0,Assumption,Louisiana,29.89946234,-91.06461642,2021-02-14,2055,LA,33
22009.0,Avoyelles,Louisiana,31.07796211,-92.00079449,2021-02-14,3822,LA,117
22011.0,Beauregard,Louisiana,30.64836518,-93.34173616,2021-02-14,2734,LA,63
22013.0,Bienville,Louisiana,32.34569994,-93.05398492,2021-02-14,1570,LA,69
22015.0,Bossier,Louisiana,32.67932307,-93.60460152,2021-02-14,12785,LA,253
22017.0,Caddo,Louisiana,32.57991587,-93.88375652,2021-02-14,24356,LA,651
22019.0,Calcasieu,Louisiana,30.22931235,-93.35400434,2021-02-14,18710,LA,340
22021.0,Caldwell,Louisiana,32.0902519,-92.11752148,2021-02-14,1070,LA,25
22023.0,Cameron,Louisiana,29.87592238,-93.19310676,2021-02-14,515,LA,5
22025.0,Catahoula,Louisiana,31.66778967,-91.84526385,2021-02-14,1041,LA,33
22027.0,Claiborne,Louisiana,32.82308512,-92.99526883,2021-02-14,1390,LA,49
22029.0,Concordia,Louisiana,31.44817835,-91.63814433,2021-02-14,1739,LA,55
22031.0,De Soto,Louisiana,32.05457447,-93.74130302,2021-02-14,2603,LA,69
22033.0,East Baton Rouge,Louisiana,30.53842039,-91.09777565,2021-02-14,34613,LA,706
22035.0,East Carroll,Louisiana,32.73926954,-91.23425694,2021-02-14,1096,LA,22
22037.0,East Feliciana,Louisiana,30.84425359,-91.04976723,2021-02-14,2927,LA,104
22039.0,Evangeline,Louisiana,30.72985248,-92.39915924,2021-02-14,3209,LA,74
22041.0,Franklin,Louisiana,32.13675181,-91.67589857,2021-02-14,2406,LA,100
22043.0,Grant,Louisiana,31.59882456,-92.56124347,2021-02-14,1976,LA,48
22045.0,Iberia,Louisiana,29.86803617,-91.75871777,2021-02-14,6318,LA,142
22047.0,Iberville,Louisiana,30.25734305,-91.3499598,2021-02-14,3343,LA,91
22049.0,Jackson,Louisiana,32.30251776,-92.55692092,2021-02-14,1739,LA,45
22051.0,Jefferson,Louisiana,29.74075478,-90.11115756,2021-02-14,42894,LA,822
22053.0,Jefferson Davis,Louisiana,30.26896765,-92.81210004,2021-02-14,2819,LA,82
22059.0,LaSalle,Louisiana,31.67884782,-92.15907765,2021-02-14,1393,LA,33
22055.0,Lafayette,Louisiana,30.2049055,-92.06959876,2021-02-14,21253,LA,250
22057.0,Lafourche,Louisiana,29.52470226,-90.40976986,2021-02-14,8855,LA,191
22061.0,Lincoln,Louisiana,32.6003154,-92.6659741,2021-02-14,4193,LA,86
22063.0,Livingston,Louisiana,30.44143993,-90.73061664,2021-02-14,11924,LA,171
22065.0,Madison,Louisiana,32.36918118,-91.23973355,2021-02-14,1537,LA,29
22067.0,Morehouse,Louisiana,32.81686191,-91.80421614,2021-02-14,2663,LA,66
22069.0,Natchitoches,Louisiana,31.72321584,-93.09816516,2021-02-14,3813,LA,77
22071.0,Orleans,Louisiana,30.06971951,-89.92660315,2021-02-14,27706,LA,746
22073.0,Ouachita,Louisiana,32.47645559,-92.15704172,2021-02-14,17571,LA,399
80022.0,Out of LA,Louisiana,0.0,0.0,2021-02-14,0,LA,0
22075.0,Plaquemines,Louisiana,29.42245447,-89.60322085,2021-02-14,2230,LA,22
22077.0,Pointe Coupee,Louisiana,30.71409502,-91.60209535,2021-02-14,2324,LA,68
22079.0,Rapides,Louisiana,31.19778499,-92.52997303,2021-02-14,11098,LA,282
22081.0,Red River,Louisiana,32.09530039,-93.34213308,2021-02-14,851,LA,35
22083.0,Richland,Louisiana,32.41391005,-91.76634876,2021-02-14,2306,LA,48
22085.0,Sabine,Louisiana,31.56388699,-93.55433981,2021-02-14,2721,LA,51
22087.0,St. Bernard,Louisiana,29.87761636,-89.51887093,2021-02-14,3524,LA,46
22089.0,St. Charles,Louisiana,29.90709658,-90.35555967,2021-02-14,5002,LA,88
22091.0,St. Helena,Louisiana,30.82210324,-90.71013176,2021-02-14,868,LA,8
22093.0,St. James,Louisiana,30.02531716,-90.80212061,2021-02-14,1800,LA,48
22095.0,St. John the Baptist,Louisiana,30.12597499,-90.4753503,2021-02-14,3445,LA,130
22097.0,St. Landry,Louisiana,30.59724262,-92.00135806,2021-02-14,8128,LA,236
22099.0,St. Martin,Louisiana,30.13112107,-91.61403569,2021-02-14,4767,LA,109
22101.0,St. Mary,Louisiana,29.69262097,-91.44702164,2021-02-14,4012,LA,117
22103.0,St. Tammany,Louisiana,30.40942847,-89.95642711,2021-02-14,22966,LA,468
22105.0,Tangipahoa,Louisiana,30.62888673,-90.40664996,2021-02-14,11748,LA,254
22107.0,Tensas,Louisiana,32.00760749,-91.32915234,2021-02-14,354,LA,6
22109.0,Terrebonne,Louisiana,29.37343766,-90.82626855,2021-02-14,9226,LA,189
90022.0,Unassigned,Louisiana,0.0,0.0,2021-02-14,413,LA,0
22111.0,Union,Louisiana,32.83121059,-92.3749373,2021-02-14,2280,LA,74
22113.0,Vermilion,Louisiana,29.83517605,-92.30292538,2021-02-14,4740,LA,105
22115.0,Vernon,Louisiana,31.10884837,-93.18153838,2021-02-14,2825,LA,93
22117.0,Washington,Louisiana,30.85288548,-90.03866652,2021-02-14,3981,LA,117
22119.0,Webster,Louisiana,32.70847669,-93.33121835,2021-02-14,3867,LA,92
22121.0,West Baton Rouge,Louisiana,30.46058217,-91.30989571,2021-02-14,2432,LA,51
22123.0,West Carroll,Louisiana,32.78550125,-91.461201,2021-02-14,1149,LA,38
22125.0,West Feliciana,Louisiana,30.87882871,-91.4148538,2021-02-14,1096,LA,30
22127.0,Winn,Louisiana,31.94449367,-92.63789413,2021-02-14,1441,LA,38
23001.0,Androscoggin,Maine,44.1664747,-70.20380627,2021-02-14,4609,ME,54
23003.0,Aroostook,Maine,46.65926321,-68.59841248,2021-02-14,1227,ME,43
23005.0,Cumberland,Maine,43.8370751,-70.37226999,2021-02-14,11948,ME,172
23007.0,Franklin,Maine,44.97330019,-70.44381045,2021-02-14,873,ME,10
23009.0,Hancock,Maine,44.59816444,-68.38401854,2021-02-14,852,ME,31
23011.0,Kennebec,Maine,44.40759555,-69.76738544,2021-02-14,3462,ME,48
23013.0,Knox,Maine,44.11486325,-69.10529169,2021-02-14,612,ME,5
23015.0,Lincoln,Maine,44.05996956,-69.54227124,2021-02-14,538,ME,1
80023.0,Out of ME,Maine,0.0,0.0,2021-02-14,0,ME,0
23017.0,Oxford,Maine,44.49952995,-70.75682123,2021-02-14,2117,ME,41
23019.0,Penobscot,Maine,45.40194593,-68.65020455,2021-02-14,3678,ME,76
23021.0,Piscataquis,Maine,45.83839062,-69.2860223,2021-02-14,241,ME,1
23023.0,Sagadahoc,Maine,43.95415864,-69.85074999,2021-02-14,848,ME,1
23025.0,Somerset,Maine,45.51229767,-69.95995554,2021-02-14,1210,ME,26
90023.0,Unassigned,Maine,0.0,0.0,2021-02-14,1,ME,0
23027.0,Waldo,Maine,44.4858305,-69.12061935,2021-02-14,566,ME,18
23029.0,Washington,Maine,45.01607142,-67.62813524,2021-02-14,692,ME,13
23031.0,York,Maine,43.47808377,-70.71052375,2021-02-14,9055,ME,109
24001.0,Allegany,Maryland,39.62357628,-78.69280486,2021-02-14,6363,MD,194
24003.0,Anne Arundel,Maryland,39.00670238,-76.60329337,2021-02-14,34526,MD,503
24005.0,Baltimore,Maryland,39.45784712,-76.62911955,2021-02-14,49353,MD,1222
24510.0,Baltimore City,Maryland,39.30211911,-76.61151012,2021-02-14,39424,MD,855
24009.0,Calvert,Maryland,38.53961642,-76.56820632,2021-02-14,3572,MD,63
24011.0,Caroline,Maryland,38.87172293,-75.82904158,2021-02-14,1991,MD,18
24013.0,Carroll,Maryland,39.56453592,-77.02373735,2021-02-14,7331,MD,206
24015.0,Cecil,Maryland,39.56647682,-75.94627411,2021-02-14,4940,MD,114
24017.0,Charles,Maryland,38.51092331,-76.98580666,2021-02-14,8553,MD,151
24019.0,Dorchester,Maryland,38.45413522,-76.02752426,2021-02-14,2243,MD,40
24021.0,Frederick,Maryland,39.47296601,-77.39999394,2021-02-14,16409,MD,261
24023.0,Garrett,Maryland,39.52786077,-79.27355126,2021-02-14,1829,MD,58
24025.0,Harford,Maryland,39.55010644,-76.30775940000002,2021-02-14,12040,MD,226
24027.0,Howard,Maryland,39.25305293,-76.93126208,2021-02-14,15284,MD,217
24029.0,Kent,Maryland,39.24976208,-76.04741541,2021-02-14,1088,MD,39
24031.0,Montgomery,Maryland,39.13676329,-77.20358245,2021-02-14,61643,MD,1372
80024.0,Out of MD,Maryland,0.0,0.0,2021-02-14,0,MD,0
24033.0,Prince George's,Maryland,38.83070039,-76.8496441,2021-02-14,70980,MD,1285
24035.0,Queen Anne's,Maryland,39.06198912,-76.03530977,2021-02-14,2492,MD,37
24039.0,Somerset,Maryland,38.1163542,-75.75118623,2021-02-14,2347,MD,29
24037.0,St. Mary's,Maryland,38.30058422,-76.60629279999998,2021-02-14,4900,MD,110
24041.0,Talbot,Maryland,38.76618159,-76.10882561,2021-02-14,1796,MD,30
90024.0,Unassigned,Maryland,0.0,0.0,2021-02-14,0,MD,60
24043.0,Washington,Maryland,39.60835778,-77.82002295,2021-02-14,12065,MD,240
24045.0,Wicomico,Maryland,38.37301947,-75.62705831,2021-02-14,6621,MD,137
24047.0,Worcester,Maryland,38.21274277,-75.33200012,2021-02-14,3193,MD,87
25001.0,Barnstable,Massachusetts,41.72980578,-70.28854339,2021-02-14,9600,MA,377
25003.0,Berkshire,Massachusetts,42.37428441,-73.20524838,2021-02-14,4730,MA,242
25005.0,Bristol,Massachusetts,41.79228404,-71.10872211,2021-02-14,53868,MA,1439
25007.0,Dukes,Massachusetts,41.40674725,-70.68763497,2021-02-14,0,MA,0
,Dukes and Nantucket,Massachusetts,41.40674725,-70.68763497,2021-02-14,1967,MA,2
25009.0,Essex,Massachusetts,42.6687626,-70.94687179,2021-02-14,81114,MA,2078
25011.0,Franklin,Massachusetts,42.58119713,-72.58602547,2021-02-14,1909,MA,99
25013.0,Hampden,Massachusetts,42.13440424,-72.63235561,2021-02-14,39752,MA,1274
25015.0,Hampshire,Massachusetts,42.33997957,-72.65898478,2021-02-14,6751,MA,249
25017.0,Middlesex,Massachusetts,42.48607732,-71.39049229,2021-02-14,107656,MA,3312
25019.0,Nantucket,Massachusetts,41.2942019,-70.08774729,2021-02-14,0,MA,0
25021.0,Norfolk,Massachusetts,42.16073095,-71.20530408,2021-02-14,43401,MA,1564
80025.0,Out of MA,Massachusetts,0.0,0.0,2021-02-14,0,MA,0
25023.0,Plymouth,Massachusetts,41.94070556,-70.80802823,2021-02-14,38621,MA,1242
25025.0,Suffolk,Massachusetts,42.3279514,-71.07850442,2021-02-14,75435,MA,1646
90025.0,Unassigned,Massachusetts,0.0,0.0,2021-02-14,29993,MA,8
25027.0,Worcester,Massachusetts,42.35026951,-71.90493363,2021-02-14,62980,MA,1952
26001.0,Alcona,Michigan,44.6846864,-83.59507875,2021-02-14,423,MI,24
26003.0,Alger,Michigan,46.41292944,-86.60260122,2021-02-14,431,MI,3
26005.0,Allegan,Michigan,42.59147037,-85.89102866,2021-02-14,7145,MI,115
26007.0,Alpena,Michigan,45.03477666,-83.62212411,2021-02-14,1450,MI,46
26009.0,Antrim,Michigan,44.99690221,-85.15503082,2021-02-14,893,MI,19
26011.0,Arenac,Michigan,44.0636262,-83.89277559,2021-02-14,735,MI,24
26013.0,Baraga,Michigan,46.6720582,-88.36363591,2021-02-14,598,MI,32
26015.0,Barry,Michigan,42.59513984,-85.30834519,2021-02-14,3642,MI,41
26017.0,Bay,Michigan,43.70639106,-83.98731479,2021-02-14,7261,MI,281
26019.0,Benzie,Michigan,44.63899297,-86.01608482,2021-02-14,888,MI,31
26021.0,Berrien,Michigan,41.95447397,-86.41313079999998,2021-02-14,11180,MI,234
26023.0,Branch,Michigan,41.91600556,-85.05929476,2021-02-14,3704,MI,84
26025.0,Calhoun,Michigan,42.24633834,-85.00493569,2021-02-14,9286,MI,227
26027.0,Cass,Michigan,41.91522292,-85.99405727,2021-02-14,3861,MI,59
26029.0,Charlevoix,Michigan,45.37790017,-85.19614053,2021-02-14,1021,MI,12
26031.0,Cheboygan,Michigan,45.44787015,-84.50122149,2021-02-14,885,MI,35
26033.0,Chippewa,Michigan,46.29552653,-84.54353449,2021-02-14,1718,MI,24
26035.0,Clare,Michigan,43.98794227,-84.84819859999998,2021-02-14,1582,MI,69
26037.0,Clinton,Michigan,42.94400871,-84.60145248,2021-02-14,4924,MI,69
26039.0,Crawford,Michigan,44.68255561,-84.61006219,2021-02-14,572,MI,5
26041.0,Delta,Michigan,45.90484910000001,-86.9080745,2021-02-14,3093,MI,84
26043.0,Dickinson,Michigan,46.00999672,-87.86961634,2021-02-14,2354,MI,69
26045.0,Eaton,Michigan,42.59599185,-84.83740035,2021-02-14,6050,MI,146
26047.0,Emmet,Michigan,45.52625509,-84.89083249,2021-02-14,1464,MI,37
,Federal Correctional Institution (FCI),Michigan,0.0,0.0,2021-02-14,314,MI,5
26049.0,Genesee,Michigan,43.02244215,-83.70589709,2021-02-14,24899,MI,741
26051.0,Gladwin,Michigan,43.98901072,-84.38774817,2021-02-14,1456,MI,42
26053.0,Gogebic,Michigan,46.40862701,-89.69377193,2021-02-14,1238,MI,46
26055.0,Grand Traverse,Michigan,44.69565625,-85.55585247,2021-02-14,4086,MI,65
26057.0,Gratiot,Michigan,43.29265605,-84.60505416,2021-02-14,2731,MI,100
26059.0,Hillsdale,Michigan,41.88753639,-84.59312019,2021-02-14,3261,MI,71
26061.0,Houghton,Michigan,46.89988536,-88.68495385,2021-02-14,2545,MI,40
26063.0,Huron,Michigan,43.83353985,-83.04078453,2021-02-14,2069,MI,58
26065.0,Ingham,Michigan,42.59716886,-84.37472069,2021-02-14,15846,MI,270
26067.0,Ionia,Michigan,42.94502238,-85.07413319,2021-02-14,4085,MI,67
26069.0,Iosco,Michigan,44.35486835,-83.63484895,2021-02-14,1264,MI,66
26071.0,Iron,Michigan,46.20974132,-88.53136251,2021-02-14,925,MI,48
26073.0,Isabella,Michigan,43.64060976,-84.84664923,2021-02-14,3935,MI,71
26075.0,Jackson,Michigan,42.24807035,-84.42258681,2021-02-14,9260,MI,208
26077.0,Kalamazoo,Michigan,42.24542231,-85.53038622,2021-02-14,14581,MI,316
26079.0,Kalkaska,Michigan,44.68512729,-85.09085699,2021-02-14,577,MI,15
26081.0,Kent,Michigan,43.03197711,-85.54934642,2021-02-14,50599,MI,691
26083.0,Keweenaw,Michigan,47.63197653,-88.41434263,2021-02-14,135,MI,2
26085.0,Lake,Michigan,43.99050893,-85.802173,2021-02-14,355,MI,11
26087.0,Lapeer,Michigan,43.09052506,-83.22153148,2021-02-14,4811,MI,118
26089.0,Leelanau,Michigan,44.94430054,-85.80150326,2021-02-14,836,MI,14
26091.0,Lenawee,Michigan,41.89475156,-84.06603727,2021-02-14,6019,MI,112
26093.0,Livingston,Michigan,42.60302282,-83.91297209,2021-02-14,9986,MI,133
26095.0,Luce,Michigan,46.47227431,-85.54471223,2021-02-14,214,MI,1
26097.0,Mackinac,Michigan,46.07028979,-85.04980537,2021-02-14,430,MI,3
26099.0,Macomb,Michigan,42.69158356,-82.92752801,2021-02-14,57395,MI,1930
26101.0,Manistee,Michigan,44.33352407,-86.05626916,2021-02-14,790,MI,21
26103.0,Marquette,Michigan,46.4338914,-87.64043701,2021-02-14,3927,MI,55
26105.0,Mason,Michigan,43.99509218,-86.24988902,2021-02-14,1219,MI,26
26107.0,Mecosta,Michigan,43.64064262,-85.32463223,2021-02-14,1960,MI,19
26109.0,Menominee,Michigan,45.58038692,-87.55370409,2021-02-14,1863,MI,37
,Michigan Department of Corrections (MDOC),Michigan,0.0,0.0,2021-02-14,24353,MI,147
26111.0,Midland,Michigan,43.64330771,-84.38804374,2021-02-14,4881,MI,64
26113.0,Missaukee,Michigan,44.33772443,-85.09256478,2021-02-14,722,MI,17
26115.0,Monroe,Michigan,41.92734151,-83.53749864,2021-02-14,9490,MI,195
26117.0,Montcalm,Michigan,43.31082541,-85.15252824,2021-02-14,3425,MI,84
26119.0,Montmorency,Michigan,45.0275929,-84.12696227,2021-02-14,354,MI,17
26121.0,Muskegon,Michigan,43.29123859,-86.15176712,2021-02-14,10469,MI,304
26123.0,Newaygo,Michigan,43.554374,-85.80070107,2021-02-14,2731,MI,47
26125.0,Oakland,Michigan,42.66090111,-83.38595416,2021-02-14,72810,MI,1953
26127.0,Oceana,Michigan,43.64124435,-86.26726673,2021-02-14,1844,MI,50
26129.0,Ogemaw,Michigan,44.33481032,-84.12725175,2021-02-14,1097,MI,33
26131.0,Ontonagon,Michigan,46.665226200000006,-89.31390481,2021-02-14,405,MI,19
26133.0,Osceola,Michigan,43.98992088,-85.32566756,2021-02-14,1028,MI,23
26135.0,Oscoda,Michigan,44.68192279,-84.12939244,2021-02-14,390,MI,19
26137.0,Otsego,Michigan,45.02085831,-84.59898295,2021-02-14,1116,MI,25
26139.0,Ottawa,Michigan,42.95996803,-85.9969107,2021-02-14,21830,MI,344
80026.0,Out of MI,Michigan,0.0,0.0,2021-02-14,1487,MI,11
26141.0,Presque Isle,Michigan,45.34018577,-83.91498656,2021-02-14,642,MI,27
26143.0,Roscommon,Michigan,44.33473082,-84.61067651,2021-02-14,1119,MI,31
26145.0,Saginaw,Michigan,43.33433923,-84.05131209999998,2021-02-14,14525,MI,485
26151.0,Sanilac,Michigan,43.42406072,-82.82055898,2021-02-14,1953,MI,74
26153.0,Schoolcraft,Michigan,46.19235734,-86.19972234,2021-02-14,257,MI,5
26155.0,Shiawassee,Michigan,42.95392800000001,-84.14585902,2021-02-14,3700,MI,75
26147.0,St. Clair,Michigan,42.92655373,-82.67937954,2021-02-14,8440,MI,250
26149.0,St. Joseph,Michigan,41.91441767,-85.52797979,2021-02-14,4549,MI,81
26157.0,Tuscola,Michigan,43.46606813,-83.41897025,2021-02-14,3099,MI,132
90026.0,Unassigned,Michigan,0.0,0.0,2021-02-14,19,MI,0
26159.0,Van Buren,Michigan,42.25190229,-86.01939087,2021-02-14,4881,MI,95
26161.0,Washtenaw,Michigan,42.253105,-83.83853204,2021-02-14,17889,MI,237
26163.0,Wayne,Michigan,42.28098405,-83.281255,2021-02-14,99289,MI,4083
26165.0,Wexford,Michigan,44.33853602,-85.57712739,2021-02-14,1391,MI,20
27001.0,Aitkin,Minnesota,46.60962049,-93.4116826,2021-02-14,1151,MN,33
27003.0,Anoka,Minnesota,45.27476015,-93.24604565,2021-02-14,32557,MN,379
27005.0,Becker,Minnesota,46.93479392,-95.67158144,2021-02-14,3007,MN,41
27007.0,Beltrami,Minnesota,47.97373527,-94.93732139,2021-02-14,3289,MN,48
27009.0,Benton,Minnesota,45.69804958,-93.99514135,2021-02-14,4377,MN,90
27011.0,Big Stone,Minnesota,45.42712824,-96.41403739,2021-02-14,497,MN,3
27013.0,Blue Earth,Minnesota,44.03554215,-94.06699781,2021-02-14,5723,MN,34
27015.0,Brown,Minnesota,44.24205652,-94.72562874,2021-02-14,2349,MN,37
27017.0,Carlton,Minnesota,46.59180601,-92.67601019,2021-02-14,2955,MN,43
27019.0,Carver,Minnesota,44.82017001,-93.8009918,2021-02-14,7392,MN,40
27021.0,Cass,Minnesota,46.95043611,-94.32603968,2021-02-14,2147,MN,24
27023.0,Chippewa,Minnesota,45.02343421,-95.56403693,2021-02-14,1349,MN,35
27025.0,Chisago,Minnesota,45.5021011,-92.90861945,2021-02-14,4830,MN,43
27027.0,Clay,Minnesota,46.89289518,-96.48761922,2021-02-14,6735,MN,84
27029.0,Clearwater,Minnesota,47.57992111,-95.37790562,2021-02-14,706,MN,14
27031.0,Cook,Minnesota,47.90504893,-90.52629546,2021-02-14,118,MN,0
27033.0,Cottonwood,Minnesota,44.00715262,-95.18138802,2021-02-14,1328,MN,20
27035.0,Crow Wing,Minnesota,46.48096553,-94.06755609,2021-02-14,5087,MN,80
27037.0,Dakota,Minnesota,44.67172617,-93.06299363,2021-02-14,35121,MN,377
27039.0,Dodge,Minnesota,44.02238415,-92.86244324,2021-02-14,1488,MN,4
27041.0,Douglas,Minnesota,45.93348491,-95.45335469,2021-02-14,3864,MN,68
27043.0,Faribault,Minnesota,43.67381499,-93.94787458,2021-02-14,1181,MN,16
27045.0,Fillmore,Minnesota,43.67394126,-92.08980382,2021-02-14,1350,MN,8
27047.0,Freeborn,Minnesota,43.67385583,-93.34884422,2021-02-14,2716,MN,23
27049.0,Goodhue,Minnesota,44.40849741,-92.7234195,2021-02-14,3785,MN,65
27051.0,Grant,Minnesota,45.93424769,-96.01139609,2021-02-14,468,MN,8
27053.0,Hennepin,Minnesota,45.00761521,-93.47694895,2021-02-14,98278,MN,1569
27055.0,Houston,Minnesota,43.67129565,-91.49143057,2021-02-14,1547,MN,14
27057.0,Hubbard,Minnesota,47.10778564,-94.91693868,2021-02-14,1582,MN,39
27059.0,Isanti,Minnesota,45.56181234,-93.29487636,2021-02-14,2995,MN,49
27061.0,Itasca,Minnesota,47.51009045,-93.63092229,2021-02-14,3007,MN,45
27063.0,Jackson,Minnesota,43.67423373,-95.15398258,2021-02-14,908,MN,10
27065.0,Kanabec,Minnesota,45.9459309,-93.29275192,2021-02-14,1050,MN,19
27067.0,Kandiyohi,Minnesota,45.1526059,-95.00586446,2021-02-14,5713,MN,74
27069.0,Kittson,Minnesota,48.77754106,-96.78317184,2021-02-14,395,MN,21
27071.0,Koochiching,Minnesota,48.24539665,-93.78352843,2021-02-14,615,MN,11
27073.0,Lac qui Parle,Minnesota,44.9973857,-96.17488219,2021-02-14,674,MN,16
27075.0,Lake,Minnesota,47.64270764,-91.44557998,2021-02-14,697,MN,17
27077.0,Lake of the Woods,Minnesota,48.77217001,-94.90274472,2021-02-14,210,MN,1
27079.0,Le Sueur,Minnesota,44.37136597,-93.72844721,2021-02-14,2274,MN,20
27081.0,Lincoln,Minnesota,44.41311883,-96.26688165,2021-02-14,499,MN,2
27083.0,Lyon,Minnesota,44.41327865,-95.83806103,2021-02-14,3106,MN,43
27087.0,Mahnomen,Minnesota,47.32557075,-95.80921485,2021-02-14,429,MN,7
